YEARMONTH,EPISODE_ID,EVENT_ID,LOCATION_INDEX,RANGE,AZIMUTH,LOCATION,LATITUDE,LONGITUDE,LAT2,LON2
201201,59807,357082,4,1.09,NNE,PETERSBURG,38.5137,-87.2701,38.30822,-87.16206
201201,59808,357074,1,3.06,ENE,GRAYS RIVER,46.3662,-123.5404,46.21972,-12.332424
201201,59808,357074,2,2.64,NE,GRAYS RIVER,46.3765,-123.5601,46.2259,-12.333606
201201,59808,357074,3,1.37,NW,GRAYS RIVER,46.3633,-123.6213,46.21798,-12.337278
201201,59808,357074,4,2.43,WNW,EDEN,46.3109,-123.6985,46.18654,-12.34191
201201,59808,357074,5,1.11,WSW,EDEN,46.2943,-123.6717,46.17658,-12.340302
201201,59809,357075,1,0.57,W,CHICKAMAUGA,35.07,-85.26,35.42,-85.156
201201,59809,357076,1,1.33,ESE,GLOVER HILL,35.06,-85.63,35.36,-85.378
201201,59811,357148,1,3.13,WNW,ROBERTS,44.9104,-123.1622,44.54624,-12.39732
201201,59811,357148,2,4.36,WNW,KEIZER,45.0114,-123.1073,45.684,-12.36438
201201,59811,357148,3,2.63,ESE,CHEMAWA,44.9901,-122.948,44.59406,-12.25688
201201,59811,357148,4,1.55,NW,AUMSVILLE,44.8471,-122.8903,44.50826,-12.253418
201201,59811,357148,5,3.41,SW,TURNER,44.8111,-122.9727,44.48666,-12.258362
201201,59811,357149,1,0.96,NNE,FRY,44.5934,-123.0249,44.35604,-12.31494
201201,59811,357149,2,0.79,S,PIRTLE,44.5885,-123.1495,44.3531,-12.3897
201201,59811,357149,3,4.69,WSW,DEVER,44.6823,-123.1595,44.40938,-12.3957
201201,59811,357149,4,1.54,ENE,MILLERSBURG,44.6867,-123.0201,44.41202,-12.31206
201201,59811,357150,1,0.65,WSW,SCIO,44.6965,-122.8423,44.4179,-12.250538
201201,59811,357150,2,1.54,WSW,SCIO,44.6954,-122.8607,44.41724,-12.251642
201201,59811,357150,3,0.71,SE,WEST SCIO,44.7118,-122.8612,44.42708,-12.251672
201201,59811,357150,4,1.1,NNW,SCIO,44.7142,-122.8404,44.42852,-12.250424
201201,59812,357083,1,0.0,N,DUNMOR,37.07,-87.0,37.42,-87.0
201201,59812,357083,2,0.0,N,GREENVILLE,37.2,-87.18,37.12,-87.108
201201,59824,357228,1,0.0,N,MT STERLING,38.05,-83.95,38.3,-83.57
201201,59824,357229,1,2.0,SSE,FRENCHBURG,37.9233,-83.616,37.55398,-83.3696
201201,59824,357230,1,0.0,N,GRASSY CREEK,37.87,-83.35,37.522,-83.21
201201,59824,357232,1,0.0,N,STANTON,37.85,-83.87,37.51,-83.522
201201,59824,357233,1,5.0,NNW,MC KEE,37.4969,-84.0349,37.29814,-84.2094
201201,59824,357234,1,3.0,SW,BEATTYVILLE,37.5493,-83.7587,37.32958,-83.45522
201201,59824,357236,1,0.0,N,JACKSON,37.55,-83.38,37.33,-83.228
201201,59824,357237,1,0.0,N,JACKSON,37.55,-83.38,37.33,-83.228
201201,59824,357240,1,3.0,NE,CAMP LEWIS,37.6107,-83.1413,37.36642,-83.8478
201201,59824,357241,1,0.0,N,DOTSON,37.65,-82.87,37.39,-82.522
201201,59824,357242,1,2.0,SW,MARTIN,37.5495,-82.7758,37.3297,-82.46548
201201,59824,357243,1,1.0,E,EMMA,37.63,-82.7017,37.378,-82.42102
201201,59824,367563,1,0.69,N,RAVENNA,37.69,-83.95,37.414,-83.57
201201,59824,367564,1,0.88,SE,BARNES MOUNTAIN,37.62,-83.91,37.372,-83.546
201201,59824,367566,1,0.88,NW,RICE STATION,37.71,-84.06,37.426,-84.36
201201,59865,357431,1,2.95,SSE,HAWAIIAN BEACHES,19.5137,-154.8962,19.30822,-15.453772
201201,59865,357431,2,2.34,W,KALAPANA,19.3463,-155.0157,19.20778,-15.5942
201201,59865,357432,1,1.44,S,HAWAIIAN BEACHES,19.5293,-154.9182,19.31758,-15.455092
201201,59865,357432,2,3.34,SSE,VOLCANO,19.3739,-155.2148,19.22434,-15.512888
201201,59865,357433,1,3.22,ENE,VOLCANO,19.4309,-155.1819,19.25854,-15.510914
201201,59865,357433,2,2.7,WNW,NAALEHU,19.0782,-155.6104,19.4692,-15.536624
201201,59865,357434,1,0.63,SSE,PRINCEVILLE,22.2116,-159.4762,22.12696,-15.928572
201201,59865,357434,2,0.71,SSE,PRINCEVILLE,22.2103,-159.4765,22.12618,-15.92859
201201,59865,357434,3,0.71,SSE,PRINCEVILLE,22.2107,-159.4754,22.12642,-15.928524
201201,59865,357434,4,0.66,SSE,PRINCEVILLE,22.2114,-159.4755,22.12684,-15.92853
201201,59865,357435,1,1.58,N,KAPAA,22.1028,-159.3205,22.6168,-15.91923
201201,59865,357435,2,1.44,NNE,KAPAA,22.099,-159.3107,22.594,-15.918642
201201,59865,357435,3,1.32,NNE,KAPAA,22.0974,-159.3115,22.5844,-15.91869
201201,59865,357435,4,1.52,N,KAPAA,22.102,-159.3221,22.612,-15.919326
201201,59871,357489,1,2.07,S,NEW SIGHT,31.62,-90.45,31.372,-90.27
201201,59871,357491,1,0.91,SE,ROCKPORT,31.79,-90.16,31.474,-90.96
201201,59871,357492,1,3.59,E,STRONGHOPE,31.74,-90.22,31.444,-90.132
201201,59871,357492,2,2.0,SW,ROCKPORT,31.7769,-90.1905,31.46614,-90.1143
201201,59871,357493,1,1.42,W,MAYBANK,31.4223,-89.404,31.25338,-89.2424
201201,59871,357493,2,3.8,NNW,MACEDONIA,31.4264,-89.2145,31.25584,-89.1287
201201,59871,357493,3,1.25,N,MC CALLUM,31.2481,-89.2193,31.14886,-89.13158
201201,59871,357493,4,4.67,W,BONHOMIE,31.2716,-89.3985,31.16296,-89.2391
201201,59871,357494,1,0.85,NNE,(LUL)HESLER FLD LAUR,31.6821,-89.1671,31.40926,-89.10026
201201,59871,357494,2,2.02,SE,LAUREL,31.6809,-89.1039,31.40854,-89.6234
201201,59871,357494,3,1.76,WSW,ERRATA,31.758,-89.0964,31.4548,-89.5784
201201,59871,357494,4,1.08,WNW,HOY,31.758,-89.1657,31.4548,-89.9942
201202,59873,357719,1,0.0,N,OZARK,31.44,-85.64,31.264,-85.384
201202,59873,357721,1,0.72,SSW,GENEVA MUNICIPAL ARPT,31.041,-85.866,31.246,-85.5196
201202,59873,357722,1,0.0,N,OZARK,31.44,-85.64,31.264,-85.384
201202,59873,357723,1,0.0,N,DOTHAN,31.22,-85.39,31.132,-85.234
201202,59874,357743,1,2.25,SE,SCHLEY,31.21,-83.79,31.126,-83.474
201202,59874,357744,1,0.0,N,WAGON WHEEL,31.23,-83.46,31.138,-83.276
201202,59874,357745,1,2.16,NNW,MASSEE,31.22,-83.36,31.132,-83.216
201202,59874,357746,1,1.5,NNW,COTTLE,31.22,-83.32,31.132,-83.192
201202,59874,357747,1,0.07,N,WEST BAINBRIDGE,30.911,-84.58,30.5466,-84.348
201202,59874,357748,1,2.6,SE,DRAKES STILL,30.784,-84.8684,30.4704,-84.52104
201202,59874,357749,1,0.93,W,I-75 AT EXIT 5,30.6824,-83.2355,30.40944,-83.1413
201202,59874,357751,1,0.0,N,TIFTON,31.45,-83.5,31.27,-83.3
201202,59874,357752,1,3.55,N,LOCKETT CROSSING,31.6012,-84.245,31.36072,-84.147
201202,59874,357753,1,1.56,NW,ELPINO,31.0074,-84.2468,31.444,-84.14808
201202,59874,357754,1,2.25,NNW,BERLIN,31.1017,-83.6189,31.6102,-83.37134
201202,59874,357756,1,4.21,NW,ALBANY,31.6136,-84.2198,31.36816,-84.13188
201202,59874,357756,2,0.95,N,TURNER CITY,31.6037,-84.0983,31.36222,-84.5898
201202,59874,357756,3,1.89,SE,EAST ALBANY,31.5493,-84.099,31.32958,-84.594
201202,59874,357756,4,1.56,E,LOCKETT CROSSING,31.5525,-84.2236,31.3315,-84.13416
201202,59874,358092,1,3.44,SE,LUKE,31.3,-84.9435,31.18,-84.5661
201202,59874,358092,2,1.37,WNW,CUBA,31.3,-84.87,31.18,-84.522
201202,59874,358093,1,0.0,N,COLQUITT,31.17,-84.73,31.102,-84.438
201202,59874,358098,1,6.0,SW,HOGGARD MILL,31.14,-84.53,31.84,-84.318
201202,59874,358107,1,1.5,SSW,CRESTVIEW,31.31,-84.62,31.186,-84.372
201202,59874,358107,2,0.0,N,NEWTON,31.31,-84.33,31.186,-84.198
201202,59874,358110,1,6.85,WSW,HOPEFUL,31.11,-84.49,31.66,-84.294
201202,59874,358117,1,0.0,N,ADEL,31.13,-83.42,31.78,-83.252
201202,59874,358118,1,0.0,N,NASHVILLE,31.2,-83.25,31.12,-83.15
201202,59874,358118,2,4.36,ESE,WEBER,31.21,-83.06,31.126,-83.36
201202,59874,358119,1,10.0,W,MOULTRIE,31.17,-83.9492,31.102,-83.56952
201202,59874,358119,2,0.0,N,MOULTRIE,31.17,-83.78,31.102,-83.468
201202,59874,358120,1,0.0,N,WHIGHAM,30.88,-84.32,30.528,-84.192
201202,59874,358120,2,0.0,N,CAIRO,30.87,-84.2,30.522,-84.12
201202,59874,358121,1,4.1,WNW,PARKERVILLE,31.46,-83.99,31.276,-83.594
201202,59874,358122,1,0.0,N,SYLVESTER,31.53,-83.83,31.318,-83.498
201202,59874,358123,1,0.0,N,SUMNER,31.5,-83.74,31.3,-83.444
201202,59874,358124,1,2.39,NNW,QUALITY,31.07,-84.09,31.42,-84.54
201202,59874,358125,1,0.0,N,CAMILLA,31.23,-84.21,31.138,-84.126
201202,59874,358126,1,17.0,W,PELHAM,31.12,-84.4374,31.72,-84.26244
201202,59874,358126,2,0.0,N,PELHAM,31.12,-84.15,31.72,-84.9
201202,59874,358127,1,3.88,SSW,(ABY)SOUTHWEST GA RGNL ARPT,31.48,-84.22,31.288,-84.132
201202,59874,358128,1,2.38,SSW,(ABY)SOUTHWEST GA RGNL ARPT,31.5,-84.21,31.3,-84.126
201202,59874,358129,1,0.0,N,ALBANY,31.57,-84.17,31.342,-84.102
201202,59874,358130,1,2.07,N,BETHANY,30.88,-84.73,30.528,-84.438
201202,59874,358131,1,0.0,N,BAINBRIDGE,30.9,-84.57,30.54,-84.342
201201,60529,362772,1,0.08,W,GRAND MARAIS LIGHT,46.6799,-85.9717,46.40794,-85.58302
201203,60530,361284,1,0.88,NE,FERDINAND,38.23,-86.86,38.138,-86.516
201203,60530,361285,1,0.0,N,DUBOIS,38.45,-86.8,38.27,-86.48
201203,60530,361286,1,3.5,N,ELON,38.47,-86.66,38.282,-86.396
201203,60530,361287,1,0.0,N,HENRYVILLE,38.53,-85.77,38.318,-85.462
201203,60531,361288,1,0.0,N,HARDINSBURG ARPT,37.78,-86.45,37.468,-86.27
201203,60531,361289,1,0.0,N,ELIZABETH TOWN,37.7,-85.87,37.42,-85.522
201203,60531,361290,1,0.88,NE,GATTON,37.48,-85.62,37.288,-85.372
201203,60531,361291,1,0.69,N,WILLISBURG,37.81,-85.12,37.486,-85.72
201203,60531,361292,1,0.69,N,FRANKLIN,36.73,-86.57,36.438,-86.342
201203,60531,361293,1,1.49,SSE,SINAI,37.93,-85.02,37.558,-85.12
201203,60531,361294,1,0.0,N,MIDWAY,38.15,-84.68,38.9,-84.408
201206,63337,379208,1,1.23,E,BUCHANAN,27.4,-81.78,27.24,-81.468
201206,63337,379208,2,3.7,NW,TORREY,27.63,-81.88,27.378,-81.528
201206,63337,379209,1,2.07,S,VENUS,27.04,-81.36,27.24,-81.216
201206,63337,379209,2,0.66,SSE,HICORIA,27.1413,-81.3455,27.8478,-81.2073
201206,63337,379585,1,2.82,WNW,PLACID LAKES,27.27,-81.44,27.162,-81.264
201206,63337,379585,2,4.47,NW,LAKE PLACID,27.3452,-81.4222,27.20712,-81.25332
201206,63337,380272,1,1.4,ESE,WNTR HVN CYP GDNS AR,27.96,-81.68,27.576,-81.408
201206,63337,380272,2,1.83,E,WNTR HVN CYP GDNS AR,27.97,-81.67,27.582,-81.402
201206,63337,380273,1,1.84,SE,WNTR HVN CYP GDNS AR,27.95,-81.68,27.57,-81.408
201206,63337,380273,2,2.44,E,WINTER HAVEN,28.04,-81.68,28.24,-81.408
201206,63337,380274,1,0.69,S,SAINT PETERSBURG BEACH,27.7,-82.74,27.42,-82.444
201206,63337,380274,2,0.92,SW,GULFPORT,27.74,-82.72,27.444,-82.432
201206,63337,380275,1,6.1,E,CHASSAHOWITZKA,28.7,-82.47,28.42,-82.282
201206,63337,380275,2,5.83,ESE,HOMOSASSA SPRINGS,28.77,-82.45,28.462,-82.27
201206,63337,380485,1,4.96,ENE,BRIGHTON,27.2714,-81.023,27.16284,-81.138
201206,63337,380485,2,5.89,ENE,BRIGHTON,27.2841,-81.0122,27.17046,-81.732
201206,63337,380487,1,0.93,SSE,NEW PORT RICHEY,28.2372,-82.715,28.14232,-82.429
201206,63337,380487,2,0.74,SE,NEW PORT RICHEY,28.2419,-82.7121,28.14514,-82.42726
201206,63337,380488,1,1.55,SSE,INDIAN ROCKS BEACH,27.8783,-82.8437,27.52698,-82.50622
201206,63337,380488,2,1.12,SE,INDIAN ROCKS BEACH,27.8878,-82.8379,27.53268,-82.50274
201206,63337,380489,1,4.8,S,LUTZ TAMPA DOWNS ARP,28.1506,-82.3747,28.9036,-82.22482
201206,63337,380489,2,3.75,S,LUTZ TAMPA DOWNS ARP,28.1659,-82.3762,28.9954,-82.22572
201206,63337,394649,1,3.75,W,ST CATHERINE,28.6258,-82.1915,28.37548,-82.1149
201206,63337,394649,2,1.2,NNE,WEBSTER,28.6244,-82.039,28.37464,-82.234
201206,63337,394649,3,0.48,ENE,THE VILLAGES,28.9434,-81.9731,28.56604,-81.58386
201206,63337,394649,4,4.98,W,OXFORD,28.9387,-82.1118,28.56322,-82.6708
201206,63337,394650,1,0.62,W,WARM MINERAL SPRINGS,27.05,-82.28,27.3,-82.168
201206,63337,394654,1,0.51,WSW,SARASOTA,27.3362,-82.5371,27.20172,-82.32226
201206,63337,395002,1,5.83,WNW,RINGGOLD,28.6843,-82.5379,28.41058,-82.32274
201206,63337,395002,2,2.6,NNW,RINGGOLD,28.6828,-82.4709,28.40968,-82.28254
201206,63337,395002,3,0.87,SW,BROOKSVILLE,28.54,-82.3988,28.324,-82.23928
201206,63337,395002,4,2.23,ENE,WEEKI WACHEE,28.5327,-82.5362,28.31962,-82.32172
201206,63337,395006,1,1.22,E,GULFPORT,27.75,-82.69,27.45,-82.414
201206,63337,395017,1,0.0,N,INDIAN ROCKS BEACH,27.9,-82.85,27.54,-82.51
201206,63337,395031,1,1.99,NE,BELLEAIR,27.9609,-82.7876,27.57654,-82.47256
201206,63337,395039,1,2.3,SE,NOWATNEY,28.0543,-82.426,28.3258,-82.2556
201206,63337,395047,1,0.0,N,NEW PORT RICHEY,28.25,-82.72,28.15,-82.432
201206,63337,395049,1,1.22,E,NEW PORT RICHEY,28.25,-82.7,28.15,-82.42
201206,63337,395061,1,0.69,N,SAINT PETERSBURG BEACH,27.72,-82.74,27.432,-82.444
201206,63337,395064,1,1.97,ENE,BEE RIDGE,27.29,-82.44,27.174,-82.264
201206,63337,395076,1,0.0,N,GOLDEN BEACH,27.07,-82.45,27.42,-82.27
201206,63337,395426,1,1.02,W,ELOISE,27.9982,-81.7466,27.59892,-81.44796
201206,63337,395463,1,0.67,NNW,NEW PORT RICHEY,28.2591,-82.7236,28.15546,-82.43416
201206,63337,395463,2,2.74,SE,JASMINE ESTATES,28.2573,-82.6745,28.15438,-82.4047
201206,63337,395463,3,2.27,W,NEW PORT RW PASCO AR,28.1756,-82.667,28.10536,-82.4002
201206,63337,395463,4,1.54,SW,HOLIDAY,28.175,-82.7586,28.105,-82.45516
201206,63337,395473,1,3.75,WNW,WARM MINERAL SPRINGS,27.0634,-82.329,27.3804,-82.1974
201206,63337,395473,2,2.04,NNW,WARM MINERAL SPRINGS,27.0784,-82.279,27.4704,-82.1674
201206,63337,395473,3,1.97,SSE,WARM MINERAL SPRINGS,27.024,-82.257,27.144,-82.1542
201206,63337,395473,4,2.82,NNE,MANASOTA,27.0182,-82.3041,27.1092,-82.18246
201206,63337,402449,1,0.86,W,SAINT PETERSBURG-CLEARWATER INTL AIRPORT,27.9086,-82.7041,27.54516,-82.42246
201204,63344,379283,1,1.5,SW,SAN JUAN,26.1663,-98.1888,26.9978,-98.11328
201204,63344,379307,1,4.19,NNE,PORT ISABEL,26.1246,-97.1706,26.7476,-97.10236
201204,63344,379307,2,2.09,ENE,PORT ISABEL,26.0783,-97.1676,26.4698,-97.10056
201204,63344,380169,1,2.51,NNE,SARITA,27.2504,-97.7776,27.15024,-97.46656
201204,63344,380169,2,3.03,NNE,SARITA,27.2608,-97.7819,27.15648,-97.46914
201204,63344,380170,1,0.69,S,BAYVIEW,26.12,-97.4,26.72,-97.24
201205,63345,379268,1,0.9,NW,WINNSBORO,32.96,-95.29,32.576,-95.174
201205,63345,379269,1,0.0,N,PITTSBURG,33.0,-94.97,33.0,-94.582
201205,63346,379270,1,0.0,N,SAGINAW BAY LIGHT,43.81,-83.72,43.486,-83.432
201205,63346,379271,1,0.0,N,GRAVELLY SHOALS LIGHT,44.02,-83.54,44.12,-83.324
201205,63346,379274,1,0.0,N,SAGINAW BAY LIGHT,43.81,-83.72,43.486,-83.432
201205,63347,379272,1,1.5,NNE,JACKSONVILLE,31.97,-95.26,31.582,-95.156
201205,63348,379279,1,0.0,N,SAGINAW BAY LIGHT,43.81,-83.72,43.486,-83.432
201205,63348,379280,1,0.0,N,GRAVELLY SHOALS LIGHT,44.02,-83.54,44.12,-83.324
201205,63349,379281,1,0.91,SE,MONTGOMERY,31.66,-92.89,31.396,-92.534
201205,63349,379282,1,0.0,N,DRY PRONG,31.58,-92.53,31.348,-92.318
201205,63349,379284,1,0.69,N,JENA,31.69,-92.13,31.414,-92.78
201205,63350,379311,1,2.89,NW,BUENA VISTA,43.43,-83.86,43.258,-83.516
201205,63350,379313,1,2.04,NW,MERSHON,43.47,-83.98,43.282,-83.588
201205,63350,379314,1,1.5,E,ARTHUR,43.45,-83.75,43.27,-83.45
201205,63350,379315,1,0.0,N,CHESANING,43.18,-84.12,43.108,-84.72
201205,63350,379316,1,2.04,SE,ARTHUR,43.43,-83.75,43.258,-83.45
201205,63350,379317,1,1.38,N,JUNIATA,43.37,-83.47,43.222,-83.282
201205,63350,379318,1,1.5,W,MERSHON,43.45,-83.98,43.27,-83.588
201204,63352,379320,1,2.76,S,ZAPATA,26.86,-99.23,26.516,-99.138
201204,63352,379323,1,3.67,NNW,LOPENO,26.77,-99.12,26.462,-99.72
201204,63352,379324,1,0.0,N,ROMA ARPT,26.58,-99.13,26.348,-99.78
201204,63352,379325,1,0.0,N,ROMA ARPT,26.58,-99.13,26.348,-99.78
201206,63353,379321,1,2.93,E,MANSFIELD,32.03,-93.67,32.18,-93.402
201206,63354,379326,1,0.0,N,CHIRENO,31.5,-94.35,31.3,-94.21
201206,63354,379327,1,0.0,N,CHIRENO,31.5,-94.35,31.3,-94.21
201206,63354,379328,1,0.69,N,BROADDUS,31.31,-94.27,31.186,-94.162
201206,63354,379329,1,3.0,NNE,MT SELMAN,32.11,-95.26,32.66,-95.156
201206,63354,379330,1,1.36,ENE,MT SELMAN,32.08,-95.26,32.48,-95.156
201206,63354,379331,1,0.91,NE,BULLARD,32.14,-95.32,32.84,-95.192
201206,63354,379332,1,1.38,S,TYLER,32.33,-95.3,32.198,-95.18
201206,63354,379333,1,1.38,S,TYLER,32.33,-95.3,32.198,-95.18
201206,63355,379341,1,0.86,NE,PITTSTON,41.33,-75.79,41.198,-75.474
201206,63355,379342,1,0.86,NE,HOP BOTTOM,41.71,-75.77,41.426,-75.462
201206,63355,379343,1,1.38,S,KINGSLEY,41.75,-75.77,41.45,-75.462
201206,63355,379344,1,1.69,ESE,WEST LENOX,41.71,-75.67,41.426,-75.402
201206,63355,379345,1,0.69,N,PLAINS,41.29,-75.87,41.174,-75.522
201206,63355,379346,1,0.0,N,ROYAL,41.67,-75.63,41.402,-75.378
201206,63355,379347,1,0.52,E,WEST CLIFFORD,41.68,-75.62,41.408,-75.372
201206,63355,379348,1,0.86,SW,BETHANY,41.61,-75.29,41.366,-75.174
201206,63355,379349,1,0.0,N,DINGMANS FERRY,41.22,-74.88,41.132,-74.528
201206,63355,379350,1,4.32,SE,MILLRIFT,41.37,-74.7,41.222,-74.42
201206,63356,379354,1,1.38,S,HARTMAN,33.36,-94.17,33.216,-94.102
201206,63356,379355,1,1.5,NNE,CARTWRIGHT,32.89,-95.36,32.534,-95.216
201206,63356,379356,1,3.27,SSE,QUITMAN,32.76,-95.4,32.456,-95.24
201206,63356,379357,1,3.45,S,PINE MILLS,32.68,-95.3,32.408,-95.18
201206,63356,379358,1,0.0,N,MT PLEASANT,33.17,-94.98,33.102,-94.588
201206,63356,379363,1,2.76,N,MT PLEASANT,33.21,-94.98,33.126,-94.588
201206,63356,379364,1,0.58,E,DANGERFIELD,33.03,-94.72,33.18,-94.432
201206,63356,379365,1,0.69,N,NEW BOSTON,33.46,-94.42,33.276,-94.252
201207,63559,380605,1,0.58,W,COPE,33.38,-81.01,33.228,-81.6
201207,63559,380606,1,0.57,W,PAGELAND,34.77,-80.39,34.462,-80.234
201207,63559,380607,1,0.57,W,KILLIAN,34.13,-80.96,34.78,-80.576
201207,63559,380608,1,0.57,W,BLYTHEWOOD,34.22,-80.98,34.132,-80.588
201207,63559,380609,1,0.57,W,BLYTHEWOOD,34.22,-80.98,34.132,-80.588
201207,63559,380610,1,0.0,N,CHAPIN,34.17,-81.35,34.102,-81.21
201207,63559,380611,1,0.9,NW,RIDGEWAY,34.31,-80.96,34.186,-80.576
201207,63559,380612,1,0.0,N,CHAPIN,34.17,-81.35,34.102,-81.21
201207,63559,380615,1,0.57,W,PAGELAND,34.77,-80.39,34.462,-80.234
201207,63559,380616,1,4.42,NW,RILEY,33.66,-80.86,33.396,-80.516
201207,63559,380617,1,3.19,ENE,WOLFTON,33.6,-80.93,33.36,-80.558
201207,63559,380618,1,0.69,N,LEXINGTON,33.99,-81.25,33.594,-81.15
201207,63559,380632,1,0.0,N,CHAPIN,34.17,-81.35,34.102,-81.21
201205,63431,379763,1,0.0,N,BIG FLATS,44.12,-89.8,44.72,-89.48
201205,63431,380090,1,0.55,N,CHIMNEY ROCK,44.4779,-91.4194,44.28674,-91.25164
201204,63432,379753,1,5.3,W,MIAMI,36.88,-94.9759,36.528,-94.58554
201204,63432,379753,2,1.6,WNW,MIAMI,36.8889,-94.9068,36.53334,-94.54408
201204,63432,379753,3,5.1,NW,NORTH MIAMI,36.9722,-94.9453,36.58332,-94.56718
201204,63432,379753,4,9.1,WNW,NORTH MIAMI,36.9704,-95.0323,36.58224,-95.1938
201205,63433,379757,1,9.1,WNW,NORTH MIAMI,36.9704,-95.0323,36.58224,-95.1938
201205,63433,379757,2,5.3,W,MIAMI,36.88,-94.9759,36.528,-94.58554
201205,63433,379757,3,1.6,WNW,MIAMI,36.8889,-94.9068,36.53334,-94.54408
201205,63433,379757,4,5.1,NW,NORTH MIAMI,36.9722,-94.9453,36.58332,-94.56718
201205,63434,379764,1,0.82,SE,SAN YGNACIO,27.0423,-99.4398,27.2538,-99.26388
201205,63434,379766,1,1.41,ENE,ZAPATA ARPT,26.89,-99.26,26.534,-99.156
201205,63434,379767,1,1.46,NNE,ZAPATA ARPT,26.8984,-99.2684,26.53904,-99.16104
201205,63434,379768,1,1.46,NNE,ZAPATA ARPT,26.8984,-99.2684,26.53904,-99.16104
201205,63434,379769,1,1.44,NE,ZAPATA ARPT,26.8949,-99.2637,26.53694,-99.15822
201205,63434,379769,2,1.43,NE,ZAPATA ARPT,26.8946,-99.2635,26.53676,-99.1581
201205,63434,379769,3,1.46,NE,ZAPATA ARPT,26.8948,-99.2632,26.53688,-99.15792
201205,63434,379769,4,1.46,NE,ZAPATA ARPT,26.8951,-99.2633,26.53706,-99.15798
201205,63434,379770,1,6.53,N,LINN,26.6644,-98.1267,26.39864,-98.7602
201205,63434,379770,2,5.49,NNE,SAN MANUEL,26.6477,-98.101,26.38862,-98.606
201205,63434,379772,1,0.0,N,RAYMONDVILLE,26.48,-97.78,26.288,-97.468
201205,63434,386984,1,9.59,NNW,LINN,26.6954,-98.1965,26.41724,-98.1179
201205,63434,386984,2,5.23,N,SAN MANUEL,26.6457,-98.1211,26.38742,-98.7266
201204,63435,379755,1,2.49,SE,LENAPAH,36.8239,-95.5989,36.49434,-95.35934
201204,63435,379755,2,5.34,NE,CHILDERS,36.834,-95.5158,36.5004,-95.30948
201204,63435,379755,3,4.15,NE,LENAPAH,36.884,-95.568,36.5304,-95.3408
201204,63435,379755,4,2.33,N,LENAPAH,36.8832,-95.6229,36.52992,-95.37374
201205,63436,380014,1,2.5,SE,LENAPAH,36.8244,-95.598,36.49464,-95.3588
201205,63436,380014,2,5.3,NE,CHILDERS,36.8242,-95.5023,36.49452,-95.30138
201205,63436,380014,3,4.2,NE,LENAPAH,36.893,-95.5763,36.5358,-95.34578
201205,63436,380014,4,2.3,N,LENAPAH,36.8833,-95.63,36.52998,-95.378
201205,63437,379758,1,0.18,SSW,BRIARK,35.1474,-90.1306,35.8844,-90.7836
201205,63437,379758,2,1.29,W,BLANTON,35.1695,-90.1928,35.1017,-90.11568
201205,63437,379758,3,1.6,NW,(AWM)WEST MEMPHIS AR,35.148,-90.2479,35.888,-90.14874
201205,63437,379758,4,1.02,ESE,HULBERT,35.1138,-90.1837,35.6828,-90.11022
201205,63437,379760,1,0.0,N,WEST MEMPHIS,35.15,-90.18,35.9,-90.108
201205,63437,379762,1,0.0,N,OSCEOLA,35.7,-89.97,35.42,-89.582
201205,63438,380001,1,4.5,WSW,BIG SPG,43.6503,-89.7157,43.39018,-89.42942
201205,63438,384737,1,4.49,WSW,BIG SPG,43.6504,-89.7157,43.39024,-89.42942
201205,63439,379843,1,2.55,SSE,FAYSVILLE,26.3855,-98.1153,26.2313,-98.6918
201205,63439,379843,2,3.51,SSE,FAYSVILLE,26.3728,-98.1089,26.22368,-98.6534
201205,63439,379855,1,4.79,NNE,LA BLANCA,26.3674,-98.0516,26.22044,-98.3096
201205,63439,379869,1,2.23,E,TURCOTTE,27.0163,-97.7941,27.978,-97.47646
201205,63439,379872,1,0.44,SSE,SEBASTIAN,26.3443,-97.7969,26.20658,-97.47814
201205,63439,379872,2,0.78,SE,SEBASTIAN,26.3427,-97.7904,26.20562,-97.47424
201205,63439,379875,1,1.47,N,LYFORD,26.4411,-97.7831,26.26466,-97.46986
201205,63439,386989,1,3.41,SSE,FAYSVILLE,26.3742,-98.1096,26.22452,-98.6576
201206,63440,380665,1,10.56,ENE,PLAYALINDA BEACH,28.61,-80.62,28.366,-80.372
201206,63440,380666,1,17.44,N,PLAYALINDA BEACH,28.8,-80.74,28.48,-80.444
201206,63440,380668,1,17.44,N,PLAYALINDA BEACH,28.8,-80.74,28.48,-80.444
201206,63440,380672,1,3.34,WNW,CAPE CANAVERAL,28.4,-80.65,28.24,-80.39
201206,63440,380674,1,7.36,NE,PLAYALINDA BEACH,28.63,-80.7,28.378,-80.42
201206,63440,380876,1,0.9,ESE,ST. LUCIE NUCLEAR POWER PLANT,27.3452,-80.2364,27.20712,-80.14184
201206,63440,380877,1,17.44,N,PLAYALINDA BEACH,28.8,-80.74,28.48,-80.444
201206,63444,380664,1,5.0,SSW,FRANKEL CITY,32.3131,-102.8128,32.18786,-10.248768
201206,63444,380847,1,0.25,E,FRANKEL CITY,32.38,-102.7757,32.228,-10.246542
201206,63444,380851,1,2.0,ENE,GOLDSMITH,31.9911,-102.5885,31.59466,-10.23531
201206,63444,384421,1,0.0,N,MONAHANS,31.58,-102.9,31.348,-10.254
201206,63444,384746,1,2.02,NE,GREENFIELD ACRES,31.8876,-102.3725,31.53256,-10.22235
201206,63444,384746,2,1.72,NE,GREENFIELD ACRES,31.8864,-102.378,31.53184,-10.22268
201206,63444,384746,3,1.68,ENE,GREENFIELD ACRES,31.881,-102.3745,31.5286,-10.22247
201206,63444,384746,4,1.94,ENE,GREENFIELD ACRES,31.8823,-102.3703,31.52938,-10.222218
201206,63444,385057,1,6.0,NNW,ODESSA,31.9302,-102.4091,31.55812,-10.224546
201206,63444,385058,1,6.0,NNW,ODESSA,31.9302,-102.4091,31.55812,-10.224546
201206,63444,385063,1,5.0,SE,NORTH COWDEN,31.9488,-102.4597,31.56928,-10.227582
201206,63444,393570,1,2.21,WNW,FRANKEL CITY,32.3939,-102.8142,32.23634,-10.248852
201206,63444,393570,2,0.81,E,FRANKEL CITY,32.3784,-102.7663,32.22704,-10.245978
201206,63445,379802,1,0.0,N,LOVINGTON,32.93,-103.35,32.558,-10.321
201206,63445,379803,1,0.0,N,LOVINGTON,32.93,-103.35,32.558,-10.321
201206,63445,379807,1,0.0,N,LOVINGTON,32.93,-103.35,32.558,-10.321
201206,63445,379810,1,0.0,N,HOBBS,32.7,-103.13,32.42,-10.378
201206,63445,380533,1,22.0,W,CARLSBAD,32.42,-104.6072,32.252,-10.436432
201206,63445,380538,1,2.0,S,OIL CENTER,32.4711,-103.25,32.28266,-10.315
201206,63445,380540,1,0.0,N,HOBBS,32.7,-103.13,32.42,-10.378
201206,63445,380839,1,12.0,SW,CARLSBAD,32.2972,-104.3754,32.17832,-10.422524
201206,63445,380841,1,10.0,SSW,CARLSBAD,32.2863,-104.2956,32.17178,-10.417736
201206,63445,384764,1,2.07,N,OIL CENTER,32.53,-103.2502,32.318,-10.315012
201206,63445,387876,1,0.0,N,HOBBS,32.7,-103.13,32.42,-10.378
201206,63451,381024,1,1.23,E,COTTEKILL,41.8482,-74.0763,41.50892,-74.4578
201206,63451,381025,1,1.03,E,KINGSTON,41.93,-74.0,41.558,-74.0
201206,63451,381026,1,0.51,W,GERMANTOWN,42.13,-73.89,42.78,-73.534
201206,63451,381027,1,0.86,NE,RHINEBECK,41.93,-73.91,41.558,-73.546
201206,63451,381028,1,0.3,WNW,CLAVERACK,42.2224,-73.7348,42.13344,-73.44088
201206,63451,381029,1,0.77,SSE,LORENZ PARK,42.2406,-73.762,42.14436,-73.4572
201206,63451,381030,1,0.4,SW,LORENZ PARK,42.2452,-73.7744,42.14712,-73.46464
201206,63451,381031,1,0.69,E,AMENIA,41.8489,-73.5567,41.50934,-73.33402
201206,63451,381032,1,0.31,WSW,HUDSON,42.249,-73.7859,42.1494,-73.47154
201206,63452,381033,1,1.03,NNW,TORRINGTON,41.8132,-73.1293,41.48792,-73.7758
201206,63452,381034,1,0.26,SSW,TORRINGFORD,41.8166,-73.0821,41.48996,-73.4926
201206,63452,381036,1,1.33,SSW,CORNWALL BRIDGE,41.8034,-73.3832,41.48204,-73.22992
201206,63452,381038,1,0.12,S,CORNWALL BRIDGE,41.8183,-73.3698,41.49098,-73.22188
201206,63452,381039,1,0.17,ESE,SHARON,41.8795,-73.4768,41.5277,-73.28608
201206,63452,381042,1,0.1,SW,CORNWALL BRIDGE,41.8191,-73.3716,41.49146,-73.22296
201206,63452,381044,1,0.43,E,CORNWALL BRIDGE,41.82,-73.3616,41.492,-73.21696
201206,63452,381045,1,0.83,N,TORRINGTON,41.8119,-73.1217,41.48714,-73.7302
201206,63452,381046,1,0.63,N,TORRINGTON,41.8089,-73.1176,41.48534,-73.7056
201206,63452,381048,1,0.33,WSW,LITCHFIELD,41.7476,-73.1856,41.44856,-73.11136
201206,63452,381050,1,0.9,SW,TORRINGTON,41.7907,-73.1324,41.47442,-73.7944
201206,63452,381051,1,0.91,ESE,TORRINGTON,41.7958,-73.1033,41.47748,-73.6198
201203,63453,379812,1,0.51,NE,MANISTEE,44.2551,-86.3426,44.15306,-86.20556
201203,63454,379814,1,3.0,ENE,ALABASTER,44.1966,-83.5041,44.11796,-83.30246
201204,63455,379818,1,5.0,NNW,SUGAR GROVE,36.3369,-81.8144,36.20214,-81.48864
201204,63455,379828,1,2.0,N,WILKESBORO,36.179,-81.17,36.1074,-81.102
201204,63455,379836,1,3.0,SE,TRAPHILL,36.3193,-80.9919,36.19158,-80.59514
201204,63459,379824,1,2.75,W,RUGBY,36.6234,-81.4994,36.37404,-81.29964
201206,63553,382190,1,1.25,ESE,SYRACUSE,41.41,-85.73,41.246,-85.438
201206,63553,382193,1,2.69,WSW,COLUMBIA CITY,41.16,-85.53,41.96,-85.318
201206,63553,382195,1,0.86,SW,COLUMBIA CITY,41.16,-85.49,41.96,-85.294
201206,63553,382203,1,1.73,SW,ANDREWS,40.83,-85.62,40.498,-85.372
201206,63553,382207,1,0.0,N,LIBERTY CENTER,40.7,-85.28,40.42,-85.168
201206,63553,382208,1,1.48,SSE,WASHINGTON CENTER,41.03,-85.51,41.18,-85.306
201206,63553,382209,1,0.87,SW,WAYNEDALE,41.01,-85.19,41.6,-85.114
201206,63553,382210,1,0.52,W,COLLINS,41.2,-85.39,41.12,-85.234
201206,63553,382211,1,0.0,N,DECATUR,40.83,-84.93,40.498,-84.558
201206,63553,382212,1,0.0,N,FT WAYNE,41.07,-85.13,41.42,-85.78
201206,63553,382213,1,1.71,WNW,THURMAN,41.13,-85.03,41.78,-85.18
201206,63553,382214,1,0.69,N,LAOTTO,41.29,-85.2,41.174,-85.12
201205,62473,374548,1,3.02,NNW,BIG WELLS,28.61,-99.59,28.366,-99.354
201205,62473,374549,1,2.07,N,BIG WELLS,28.6,-99.57,28.36,-99.342
201205,62473,374550,1,1.21,E,BIG WELLS,28.57,-99.55,28.342,-99.33
201205,62473,374551,1,5.45,NW,ATASCOSA,29.32,-98.8,29.192,-98.48
201205,62473,374552,1,2.83,SSW,CARRIZO SPGS,28.48,-99.86,28.288,-99.516
201205,62474,374680,1,5.81,NNW,COMSTOCK,29.76,-101.2,29.456,-10.112
201205,62474,374686,1,5.81,NNW,COMSTOCK,29.76,-101.2,29.456,-10.112
201205,62474,374690,1,1.38,N,COMSTOCK,29.7,-101.17,29.42,-10.1102
201205,62474,374693,1,0.61,W,DILLEY ARPT,28.67,-99.19,28.402,-99.114
201205,62474,374700,1,1.38,N,COMSTOCK,29.7,-101.17,29.42,-10.1102
201205,62474,374700,2,4.49,NW,COMSTOCK,29.7203,-101.2287,29.43218,-10.113722
201205,62474,374700,3,6.72,NNW,COMSTOCK,29.7623,-101.2296,29.45738,-10.113776
201205,62474,374700,4,6.08,NNE,COMSTOCK,29.7564,-101.1195,29.45384,-10.1717
201205,62474,374700,5,2.23,NE,COMSTOCK,29.6983,-101.1395,29.41898,-10.1837
201205,62474,374702,1,3.1,ENE,THREE OAKS,28.98,-98.12,28.588,-98.72
201205,62474,374704,1,0.97,NW,KOSCIUSKO,29.1098,-97.9415,29.6588,-97.5649
201205,62474,374705,1,3.62,W,KOSCIUSKO,29.1,-97.99,29.6,-97.594
201205,62474,374707,1,2.85,ESE,POTH,29.0628,-98.0571,29.3768,-98.3426
201205,62474,374707,2,2.49,SSE,POTH,29.0478,-98.0814,29.2868,-98.4884
201205,62474,374707,3,0.57,WSW,POTH,29.0755,-98.1079,29.453,-98.6474
201205,62474,374707,4,1.57,ENE,POTH,29.0916,-98.0777,29.5496,-98.4662
201205,62474,374709,1,1.2,WSW,OTLEY,28.7404,-99.1465,28.44424,-99.879
201205,62474,374709,2,1.01,SW,OTLEY,28.7381,-99.1396,28.44286,-99.8376
201205,62474,374709,3,1.51,SW,OTLEY,28.7321,-99.1442,28.43926,-99.8652
201205,62474,374709,4,1.54,SW,OTLEY,28.7359,-99.1496,28.44154,-99.8976
201205,62474,374710,1,0.92,NW,LEMING,29.08,-98.49,29.48,-98.294
201205,62474,374710,2,0.82,SE,HAIDUK,29.1222,-98.4899,29.7332,-98.29394
201205,62474,374710,3,3.88,NE,LEMING,29.1126,-98.4382,29.6756,-98.26292
201205,62474,374710,4,2.82,ENE,LEMING,29.0919,-98.4406,29.5514,-98.26436
201205,62474,374711,1,0.92,NW,NORTH UVALDE,29.26,-99.83,29.156,-99.498
201205,62474,374711,2,6.05,SW,REAGAN WELLS,29.4781,-99.8575,29.28686,-99.5145
201205,62474,374711,3,7.14,NNE,MONTELL,29.6215,-99.9646,29.3729,-99.57876
201205,62474,374711,4,5.75,N,MONTELL,29.6132,-100.0205,29.36792,-10.0123
201205,62474,374711,5,4.8,WSW,LAGUNA,29.3896,-100.0717,29.23376,-10.04302
201205,62474,374711,6,3.83,WSW,NORTH UVALDE,29.2387,-99.8822,29.14322,-99.52932
201205,62474,374713,1,3.18,SW,CONCAN,29.4849,-99.7643,29.29094,-99.45858
201205,62474,374713,2,2.61,SSE,REAGAN WELLS,29.5143,-99.7857,29.30858,-99.47142
201205,62474,374713,3,1.84,WSW,REAGAN WELLS,29.5424,-99.8293,29.32544,-99.49758
201205,62474,374713,4,3.5,SW,REAGAN WELLS,29.5194,-99.8465,29.31164,-99.5079
201205,62474,374713,5,4.3,S,REAGAN WELLS,29.4878,-99.8026,29.29268,-99.48156
201205,62474,374714,1,2.31,SSW,LAGUNA,29.3876,-100.0092,29.23256,-10.0552
201205,62474,374714,2,5.92,W,LAGUNA,29.419,-100.0983,29.2514,-10.05898
201205,62474,374714,3,6.01,WNW,LAGUNA,29.4435,-100.0961,29.2661,-10.05766
201205,62474,374714,4,1.38,WNW,LAGUNA,29.4283,-100.0209,29.25698,-10.01254
201205,62474,374715,1,1.39,ESE,POTH,29.07,-98.08,29.42,-98.48
201205,62474,374715,2,5.07,WSW,DEWEES,29.0036,-98.2617,29.216,-98.15702
201205,62474,374715,3,2.63,SSW,SASPAMCO,29.1942,-98.3146,29.11652,-98.18876
201205,62474,374715,4,3.45,NW,ALUM,29.338,-97.9871,29.2028,-97.59226
201205,62474,374715,5,2.5,SSW,PANDORA,29.2195,-97.8525,29.1317,-97.5115
201205,62474,374715,6,2.16,N,KOSCIUSKO,29.1308,-97.9239,29.7848,-97.55434
201205,62474,374716,1,0.0,N,UTOPIA,29.62,-99.53,29.372,-99.318
201205,62474,374716,2,2.19,ESE,UTOPIA,29.6034,-99.4991,29.36204,-99.29946
201205,62474,374716,3,9.69,N,SABINAL,29.4597,-99.4548,29.27582,-99.27288
201205,62474,374716,4,1.08,NNE,SABINAL,29.3338,-99.4616,29.20028,-99.27696
201205,62474,374716,5,1.6,NW,SABINAL,29.338,-99.4867,29.2028,-99.29202
201205,62474,374716,6,6.27,S,UTOPIA,29.5296,-99.5385,29.31776,-99.3231
201205,62474,374717,1,0.0,N,BRACKETTVILLE,29.32,-100.42,29.192,-10.0252
201205,62474,374717,2,1.91,NE,BRACKETTVILLE,29.3386,-100.3965,29.20316,-10.02379
201205,62474,374717,3,14.25,NE,BRACKETTVILLE,29.4408,-100.2283,29.26448,-10.013698
201205,62474,374717,4,19.15,ENE,BRACKETTVILLE,29.4606,-100.1459,29.27636,-10.08754
201205,62474,374717,5,18.69,ENE,BRACKETTVILLE,29.4242,-100.1335,29.25452,-10.0801
201205,62474,374717,6,2.78,E,BRACKETTVILLE,29.32,-100.3738,29.192,-10.022428
201205,62474,374718,1,2.0,E,VANDERPOOL,29.75,-99.3467,29.45,-99.20802
201205,62474,374718,2,4.3,W,MEDINA CIRCLE R ARPT,29.8079,-99.3404,29.48474,-99.20424
201205,62474,374718,3,4.02,NNW,VANDERPOOL,29.8002,-99.4139,29.48012,-99.24834
201205,62474,374718,4,1.06,WNW,VANDERPOOL,29.7558,-99.3964,29.45348,-99.23784
201205,62474,374719,1,2.64,W,BLUFF,29.8647,-99.3237,29.51882,-99.19422
201205,62474,374719,2,2.7,WSW,BLUFF,29.8583,-99.3229,29.51498,-99.19374
201205,62474,374719,3,2.44,WSW,BLUFF,29.8563,-99.3175,29.51378,-99.1905
201205,62474,374719,4,2.27,WSW,BLUFF,29.8615,-99.3166,29.5169,-99.18996
201205,62474,374720,1,1.26,WSW,KERRVILLE,30.0437,-99.1498,30.2622,-99.8988
201205,62474,374720,2,1.38,WSW,KERRVILLE,30.0422,-99.1512,30.2532,-99.9072
201205,62474,374720,3,1.19,SW,KERRVILLE,30.0398,-99.1461,30.2388,-99.8766
201205,62474,374720,4,1.04,WSW,KERRVILLE,30.0421,-99.1449,30.2526,-99.8694
201205,62474,374721,1,1.06,WNW,LEAKEY,29.7357,-99.7663,29.44142,-99.45978
201205,62474,374721,2,0.63,NW,LEAKEY,29.7374,-99.756,29.44244,-99.4536
201205,62474,374721,3,1.27,NNW,PRADE RANCH,29.8979,-99.7545,29.53874,-99.4527
201205,62474,374721,4,11.81,NNW,PRADE RANCH,30.0431,-99.8094,30.2586,-99.48564
201205,62474,374721,5,12.46,NW,PRADE RANCH,30.024,-99.8753,30.144,-99.52518
201205,62474,374836,1,11.18,WNW,VANDERPOOL,29.8109,-99.5528,29.48654,-99.33168
201205,62474,374836,2,9.9,W,VANDERPOOL,29.7459,-99.5449,29.44754,-99.32694
201205,62474,374836,3,10.94,W,VANDERPOOL,29.738,-99.5619,29.4428,-99.33714
201205,62474,374836,4,12.41,WNW,VANDERPOOL,29.7853,-99.5828,29.47118,-99.34968
201205,62474,374836,5,12.5,WNW,VANDERPOOL,29.8124,-99.5756,29.48744,-99.34536
201205,62474,374839,1,0.0,N,RIO FRIO,29.63,-99.73,29.378,-99.438
201205,62474,374839,2,0.52,W,RIO FRIO,29.6305,-99.7387,29.3783,-99.44322
201205,62474,374839,3,1.27,NW,RIO FRIO,29.6453,-99.7418,29.38718,-99.44508
201205,62474,374839,4,1.19,SW,LEAKEY,29.7189,-99.7651,29.43134,-99.45906
201205,62474,374839,5,1.12,S,LEAKEY,29.7139,-99.7519,29.42834,-99.45114
201205,62474,374839,6,3.06,SSE,LEAKEY,29.6869,-99.738,29.41214,-99.4428
201205,62474,374842,1,5.04,ENE,LA GLORIA,28.77,-100.42,28.462,-10.0252
201205,62474,374842,2,0.36,SW,LA GLORIA,28.7463,-100.5043,28.44778,-10.030258
201205,62474,374842,3,6.18,NNW,LA GLORIA,28.8321,-100.5407,28.49926,-10.032442
201205,62474,374842,4,3.45,SSW,PALOMA,28.8381,-100.461,28.50286,-10.02766
201205,62474,374855,1,2.83,SSW,CEDAR PARK,30.46,-97.83,30.276,-97.498
201205,62474,374856,1,1.38,S,OLD ROUND ROCK,30.48,-97.67,30.288,-97.402
201205,62474,374868,1,1.74,SE,CONCAN,29.4993,-99.7135,29.29958,-99.4281
201205,62474,374868,2,2.32,SSE,CONCAN,29.4889,-99.7154,29.29334,-99.42924
201205,62474,374868,3,6.98,WNW,KNIPPA,29.3553,-99.727,29.21318,-99.4362
201205,62474,374868,4,5.2,NW,KNIPPA,29.3535,-99.6906,29.2121,-99.41436
201205,62474,374868,5,6.5,SE,CONCAN,29.4672,-99.6405,29.28032,-99.3843
201205,62474,376265,1,2.99,W,DRIFTWOOD,30.125,-98.0798,30.75,-98.4788
201205,62474,376265,2,2.57,SE,MT GAYNOR,30.124,-98.0993,30.744,-98.5958
201205,62474,376265,3,3.89,SSE,MT GAYNOR,30.0961,-98.111,30.5766,-98.666
201205,62474,376265,4,3.61,WSW,DRIFTWOOD,30.0976,-98.0846,30.5856,-98.5076
201205,62474,376266,1,3.67,SW,WOODLAWN LAKE,29.41,-98.56,29.246,-98.336
201205,62794,375879,4,1.0,ESE,HICKORY GROVE,38.8965,-77.6119,38.5379,-77.36714
201205,62794,375880,1,1.28,WSW,CALVERTON,38.62,-77.69,38.372,-77.414
201205,62794,375880,2,0.69,SW,CALVERTON,38.6242,-77.6804,38.37452,-77.40824
201205,62794,375880,3,0.88,W,CALVERTON,38.6276,-77.686,38.37656,-77.4116
201205,62794,375880,4,1.49,WSW,CALVERTON,38.6228,-77.696,38.37368,-77.4176
201205,62794,375881,1,0.88,NW,CANOVA,38.69,-77.44,38.414,-77.264
201205,62794,375881,2,0.78,SSW,CANOVA,38.6696,-77.4354,38.40176,-77.26124
201205,62794,375881,3,1.5,SSW,CANOVA,38.6589,-77.4365,38.39534,-77.2619
201205,62794,375881,4,1.43,SSW,CANOVA,38.6617,-77.4421,38.39702,-77.26526
201205,62794,375881,5,1.01,NW,CANOVA,38.6889,-77.4449,38.41334,-77.26694
201205,62794,375882,1,0.54,W,LONGVIEW,38.73,-77.48,38.438,-77.288
201205,62794,375882,2,0.58,WSW,LONGVIEW,38.7278,-77.4804,38.43668,-77.28824
201203,60531,361295,1,0.69,N,SAVAGE,36.69,-85.05,36.414,-85.3
201203,60531,361296,1,0.69,N,BEAVER DAM,37.41,-86.88,37.246,-86.528
201203,60531,361297,1,0.69,N,MIDWAY,37.96,-86.23,37.576,-86.138
201203,60531,361298,1,0.55,W,ROGERSVILLE,37.82,-85.94,37.492,-85.564
201203,60531,361299,1,1.49,SSW,HAWESVILLE,37.88,-86.76,37.528,-86.456
201203,60531,361300,1,1.77,WSW,ATHENS,37.94,-84.4,37.564,-84.24
201203,60531,361301,1,0.0,N,RUSSELL SPGS,37.05,-85.08,37.3,-85.48
201203,60531,361302,1,0.73,SW,GREAT CROSSING,38.2123,-84.6092,38.12738,-84.36552
201203,60531,361302,2,1.53,SSE,GREAT CROSSING,38.1986,-84.593,38.11916,-84.3558
201203,60531,361302,3,1.71,W,WHITE SULPHER,38.2021,-84.7314,38.12126,-84.43884
201203,60531,361302,4,1.48,NW,WHITE SULPHER,38.2161,-84.718,38.12966,-84.4308
201203,60531,361303,1,0.88,SE,DANVILLE,37.64,-84.77,37.384,-84.462
201203,60531,361304,1,1.49,NNE,WILMORE,37.87,-84.66,37.522,-84.396
201203,60531,361305,1,1.09,W,STRINGTOWN,37.77,-84.85,37.462,-84.51
201203,60531,361306,1,0.88,SE,DANVILLE,37.64,-84.77,37.384,-84.462
201203,60531,361307,1,0.0,N,PERRYVILLE,37.65,-84.95,37.39,-84.57
201203,60531,361308,1,1.77,NW,ALBANY ARPT,36.69,-85.24,36.414,-85.144
201203,60531,361309,1,2.35,NNW,SCOTTSVILLE,36.78,-86.2,36.468,-86.12
201203,60531,361310,1,1.38,S,GREAT CROSSING,38.2,-84.6,38.12,-84.36
201203,60531,361311,1,1.77,SE,NOBOB,36.86,-85.75,36.516,-85.45
201203,60532,361312,1,0.54,W,BRANDENBURG,38.0,-86.18,38.0,-86.108
201203,60534,366546,1,2.05,ESE,MONTROSE,39.7715,-98.0431,39.4629,-98.2586
201203,60534,366546,2,2.09,W,FORMOSO,39.7829,-98.0392,39.46974,-98.2352
201203,60537,361333,1,19.4,ESE,ST FRANCIS,43.0011,-100.5785,43.66,-10.03471
201203,60537,361355,1,18.07,SSE,MISSION SIOUX ARPT,43.0533,-100.5105,43.3198,-10.03063
201203,60537,361365,1,18.08,SSE,MISSION SIOUX ARPT,43.0533,-100.5104,43.3198,-10.030624
201203,60540,361374,1,0.0,N,INTERIOR,43.72,-101.98,43.432,-10.1588
201203,60540,361375,1,0.0,N,QUINN,44.0,-102.12,44.0,-10.272
201203,60540,373534,1,5.04,NE,PORCUPINE,43.289,-102.271,43.1734,-10.21626
201203,60562,361445,1,1.38,S,NORTHFIELD,44.45,-93.17,44.27,-93.102
201203,60562,361446,1,0.99,E,DUNDAS,44.43,-93.2,44.258,-93.12
201203,60562,361447,1,0.85,SW,CARVER,44.76,-93.63,44.456,-93.378
201203,60562,361448,1,0.0,N,(AEL)ALBERT LEA ARPT,43.68,-93.37,43.408,-93.222
201203,60562,361449,1,0.0,N,EAGLE BEND,46.17,-95.03,46.102,-95.18
201203,60562,361450,1,2.9,NNE,JANESVILLE,44.1557,-93.6893,44.9342,-93.41358
201203,60562,361450,2,5.54,NNE,JANESVILLE,44.1961,-93.6848,44.11766,-93.41088
201203,60562,361469,1,0.36,SW,ELYSIAN,44.1961,-93.6848,44.11766,-93.41088
201203,60562,361469,2,3.5,N,ELYSIAN,44.2499,-93.692,44.14994,-93.4152
201203,60562,366002,1,0.18,NE,COON RAPIDS,45.1721,-93.3179,45.10326,-93.19074
201203,60562,366003,1,3.28,SSW,NOWTHEN,45.2848,-93.5007,45.17088,-93.30042
201203,60573,361514,1,4.0,S,ANADARKO,35.0221,-98.24,35.1326,-98.144
201203,60573,361515,1,0.0,N,ROOSEVELT,34.85,-99.02,34.51,-99.12
201203,60573,361516,1,4.0,S,CHOCTAW,35.4321,-97.27,35.25926,-97.162
201203,60573,361517,1,1.0,SW,CHOCTAW,35.4798,-97.2826,35.28788,-97.16956
201203,60573,361518,1,0.0,N,CRESCENT,35.95,-97.6,35.57,-97.36
201203,60573,361595,1,0.0,ESE,OKLAHOMA CITY,35.47,-97.51,35.282,-97.306
201203,60573,361596,1,4.0,WSW,EDMOND,35.6279,-97.5458,35.37674,-97.32748
201203,60573,361597,1,3.0,NE,PIEDMONT,35.6707,-97.7122,35.40242,-97.42732
201201,60584,361622,1,2.04,SW,IDLEWILD,39.1323,-84.5106,39.7938,-84.30636
201201,60584,361622,2,2.09,SW,IDLEWILD,39.1312,-84.5106,39.7872,-84.30636
201201,60584,361622,3,2.07,E,BRIGHTON,39.1313,-84.5115,39.7878,-84.3069
201201,60584,361622,4,2.07,SW,IDLEWILD,39.1324,-84.5113,39.7944,-84.30678
201201,60584,361631,1,0.81,SE,MARIEMONT,39.1411,-84.3602,39.8466,-84.21612
201201,60584,361631,2,0.87,SE,PLAINVILLE,39.1405,-84.3392,39.843,-84.20352
201201,60584,361631,3,0.84,NW,ANCOR,39.1376,-84.3421,39.8256,-84.20526
201201,60584,361631,4,0.88,S,PLAINVILLE,39.1373,-84.3513,39.8238,-84.21078
201201,60584,361635,1,0.18,SW,BRIDGETOWN,39.1684,-84.6327,39.10104,-84.37962
201201,60584,361635,2,0.78,W,BRIDGETOWN,39.1712,-84.6445,39.10272,-84.3867
201201,60584,361635,3,1.73,WNW,DENT,39.1901,-84.6596,39.11406,-84.39576
201201,60584,361635,4,1.45,WNW,DENT,39.1904,-84.6536,39.11424,-84.39216
201201,60584,361642,1,2.0,NNW,MONTGOMERY,39.2567,-84.3643,39.15402,-84.21858
201201,60584,361642,2,0.74,E,HAZELWOOD,39.2682,-84.3563,39.16092,-84.21378
201201,60584,361642,3,0.9,S,BRECON,39.2672,-84.3523,39.16032,-84.21138
201201,60584,361642,4,1.02,SSE,HAZELWOOD,39.2571,-84.3606,39.15426,-84.21636
201201,60584,361660,1,0.87,SSW,SOCIALVILLE,39.3089,-84.3278,39.18534,-84.19668
201201,60584,361660,2,1.0,SSW,SOCIALVILLE,39.3067,-84.3273,39.18402,-84.19638
201201,60584,361660,3,0.81,SSE,SOCIALVILLE,39.3088,-84.3156,39.18528,-84.18936
201201,60584,361660,4,0.69,SSE,SOCIALVILLE,39.3104,-84.3163,39.18624,-84.18978
201201,60584,361661,1,3.0,SE,HILLSBORO,39.1693,-83.5804,39.10158,-83.34824
201201,60584,361662,1,0.0,N,CHILLICOTHE,39.33,-82.98,39.198,-82.588
201201,60584,361662,2,1.12,N,CHILLICOTHE,39.3463,-82.9804,39.20778,-82.58824
201201,60584,361662,3,1.38,NE,CHILLICOTHE,39.3452,-82.9633,39.20712,-82.57798
201201,60584,361662,4,1.23,SE,CHILLICOTHE,39.3164,-82.9652,39.18984,-82.57912
201201,60584,361662,5,0.89,S,CHILLICOTHE,39.3173,-82.9825,39.19038,-82.5895
201201,60584,361681,1,0.67,WSW,DAYTON,39.1153,-84.441,39.6918,-84.2646
201201,60584,361681,2,1.23,W,DAYTON,39.1209,-84.4529,39.7254,-84.27174
201201,60584,361681,3,1.91,SSE,IDLEWILD,39.1246,-84.4661,39.7476,-84.27966
201201,60584,361681,4,1.69,SSE,IDLEWILD,39.1283,-84.4654,39.7698,-84.27924
201201,60584,361681,5,1.21,WNW,DAYTON,39.1244,-84.4519,39.7464,-84.27114
201201,60584,361681,6,0.41,WSW,DAYTON,39.1174,-84.437,39.7044,-84.2622
201201,60590,361686,1,0.0,N,OSGOOD,39.13,-85.3,39.78,-85.18
201201,60590,361686,2,0.0,N,MILAN,39.12,-85.13,39.72,-85.78
201201,60590,361686,3,0.66,SSE,OLD MILAN,39.1408,-85.1269,39.8448,-85.7614
201201,60590,361686,4,1.44,N,OSGOOD,39.1509,-85.2992,39.9054,-85.17952
201201,60592,361688,1,0.1,SSW,CROSSWICK,39.5287,-84.0809,39.31722,-84.4854
201201,60592,361688,2,0.25,SW,CROSSWICK,39.5271,-84.0829,39.31626,-84.4974
201201,60592,361688,3,0.31,S,CROSSWICK,39.5255,-84.0801,39.3153,-84.4806
201201,60592,361688,4,0.27,SSE,CROSSWICK,39.5266,-84.0775,39.31596,-84.465
201201,60592,361689,1,0.0,N,SEVEN MILE,39.48,-84.55,39.288,-84.33
201201,60592,361689,2,1.06,ESE,SEVEN MILE,39.4736,-84.5319,39.28416,-84.31914
201201,60592,361689,3,0.73,SSW,SEVEN MILE,39.471,-84.557,39.2826,-84.3342
201201,60592,361689,4,1.58,WNW,SEVEN MILE,39.49,-84.5765,39.294,-84.3459
201201,60592,361689,5,0.9,NNW,SEVEN MILE,39.4915,-84.558,39.2949,-84.3348
201201,60592,361690,1,3.0,E,CASSTOWN,40.05,-84.0733,40.3,-84.4398
201201,60592,361690,2,2.76,ENE,CASSTOWN,40.0665,-84.0825,40.399,-84.495
201201,60592,361690,3,3.29,NNE,ALCONY,40.0652,-84.0504,40.3912,-84.3024
201201,60592,361690,4,2.48,NNE,ALCONY,40.0516,-84.0478,40.3096,-84.2868
201201,60592,361691,1,3.06,W,ROYAL,39.8791,-83.7577,39.52746,-83.45462
201201,60592,361691,2,2.06,W,ROYAL,39.8755,-83.7384,39.5253,-83.44304
201201,60592,361692,1,3.0,NNE,DE GRAFF,40.3601,-83.8982,40.21606,-83.53892
201201,60592,361692,2,5.0,NW,DE GRAFF,40.3712,-83.9871,40.22272,-83.59226
201201,60592,361692,3,3.47,W,LOGANSVILLE,40.3553,-83.9955,40.21318,-83.5973
201201,60592,361692,4,1.58,E,LOGANSVILLE,40.3479,-83.9002,40.20874,-83.54012
201201,60592,362067,1,0.0,N,DAYTON,39.75,-84.18,39.45,-84.108
201201,60592,362067,2,0.82,S,OAKWOOD,39.7083,-84.1525,39.42498,-84.915
201201,60592,362067,3,0.25,SSE,NEW CHICAGO,39.7265,-84.249,39.4359,-84.1494
201201,60592,362067,4,1.94,NE,NATIONAL MILITARY HO,39.7708,-84.2257,39.46248,-84.13542
201201,60592,362068,1,0.0,N,BROOKVILLE,39.83,-84.42,39.498,-84.252
201207,63559,380632,2,0.84,SSE,SYRUP,34.0889,-81.3239,34.5334,-81.19434
201207,63559,380679,1,0.0,N,BAMBERG,33.3,-81.03,33.18,-81.18
201207,63559,380682,1,1.34,WSW,CLARKS HILL,33.66,-82.2,33.396,-82.12
201206,63563,396410,1,1.35,S,LONGPORT,39.3005,-74.531,39.1803,-74.3186
201206,63563,396410,2,3.13,ENE,BRIGANTINE,39.4423,-74.3189,39.26538,-74.19134
201206,63563,396458,1,2.41,SE,CAPE MAY,38.9101,-74.8831,38.54606,-74.52986
201206,63563,396458,2,1.72,E,OCEAN CITY,39.2841,-74.5482,39.17046,-74.32892
201206,63563,396462,1,3.61,SSW,BEACH HAVEN,39.5055,-74.2857,39.3033,-74.17142
201206,63563,396462,2,6.96,S,SEASIDE PARK,39.8195,-74.0927,39.4917,-74.5562
201206,63563,396464,1,4.09,ENE,LEWES DE,38.7987,-75.0835,38.47922,-75.501
201206,63563,396464,2,1.27,SSE,FENWICK ISLAND,38.4523,-75.0436,38.27138,-75.2616
201206,63563,396465,1,12.47,WSW,EAST POINT NJ,39.1129,-75.2208,39.6774,-75.13248
201206,63563,396465,2,8.28,ENE,LEWES DE,38.8349,-75.0208,38.50094,-75.1248
201206,63563,396466,1,21.3,N,BOWERS BEACH DE,39.3573,-75.4515,39.21438,-75.2709
201206,63563,396466,2,11.86,ENE,BOWERS BEACH DE,39.1308,-75.2249,39.7848,-75.13494
201206,63564,393308,1,0.0,N,NEWARK,39.68,-75.75,39.408,-75.45
201206,63564,393308,2,0.0,N,DELEWARE CITY,39.58,-75.6,39.348,-75.36
201206,63564,393564,1,0.0,N,MIDDLETOWN,39.45,-75.73,39.27,-75.438
201206,63564,393567,1,0.0,N,NEWARK,39.68,-75.75,39.408,-75.45
201206,63564,393571,1,0.0,N,WILMINGTON,39.75,-75.53,39.45,-75.318
201206,63564,393573,1,0.0,N,NEW CASTLE,39.67,-75.57,39.402,-75.342
201206,63564,393620,1,0.0,N,SEAFORD,38.63,-75.57,38.378,-75.342
201206,63564,393620,2,0.0,N,LEWES,38.77,-75.15,38.462,-75.9
201206,63564,393636,1,0.0,N,SANDTOWN,39.03,-75.72,39.18,-75.432
201206,63564,393636,2,0.0,N,BOWERS,39.07,-75.4,39.42,-75.24
201206,63565,390779,1,0.0,N,TILGHMAN,38.72,-76.33,38.432,-76.198
201206,63565,390779,2,0.0,N,MATTHEWS,38.82,-75.95,38.492,-75.57
201206,63565,392945,1,0.0,N,STEVENSVILLE,38.98,-76.32,38.588,-76.192
201206,63565,392945,2,0.0,N,SUDLERSVILLE,39.18,-75.87,39.108,-75.522
201206,63565,392954,1,0.0,N,ROCK HALL,39.13,-76.23,39.78,-76.138
201206,63565,392954,2,0.0,N,MASSEY,39.3,-75.83,39.18,-75.498
201206,63565,393126,1,0.0,N,HARMONY,38.78,-75.87,38.468,-75.522
201206,63565,393126,2,0.0,N,HENDERSON,39.07,-75.77,39.42,-75.462
201206,63565,393136,1,1.0,E,PORT DEPOSIT,39.6,-76.1012,39.36,-76.6072
201206,63565,393136,2,0.0,N,ELKTON,39.6,-75.83,39.36,-75.498
201206,63566,393653,1,0.0,N,PENNSVILLE,39.65,-75.52,39.39,-75.312
201206,63566,393653,2,0.0,N,ELMER,39.58,-75.18,39.348,-75.108
201206,63566,393665,1,0.0,N,GREENWICH,39.4,-75.33,39.24,-75.198
201206,63566,393665,2,0.0,N,PORT ELIZABETH,39.32,-75.0,39.192,-75.0
201206,63566,393681,1,0.0,N,BUENA,39.52,-74.93,39.312,-74.558
201206,63566,393681,2,0.0,N,ATLANTIC CITY,39.37,-74.45,39.222,-74.27
201206,63566,394579,1,0.0,N,ABSECON,39.43,-74.5,39.258,-74.3
201206,63566,394583,1,2.14,NNE,SCULLVILLE,39.36,-74.64,39.216,-74.384
201206,63566,394585,1,0.0,N,EGG HARBOR CITY,39.53,-74.67,39.318,-74.402
201206,63566,394592,1,0.0,N,TUCKERTON,39.6,-74.33,39.36,-74.198
201206,63566,394595,1,1.0,SSW,IONA,39.5866,-75.0772,39.35196,-75.4632
201206,63566,394602,1,0.0,N,ATCO,39.77,-74.9,39.462,-74.54
201206,63566,394606,1,0.0,N,TUCKERTON,39.6,-74.33,39.36,-74.198
201206,63566,394610,1,0.0,N,TUCKERTON,39.6,-74.33,39.36,-74.198
201206,63566,394611,1,0.0,N,ELDORA,39.22,-74.92,39.132,-74.552
201206,63566,394611,2,0.0,N,AVALON,39.1,-74.73,39.6,-74.438
201206,63566,396444,1,0.73,S,LONGPORT,39.3095,-74.5297,39.1857,-74.31782
201207,63576,402051,1,0.42,WNW,BLAIRSTOWN,40.9826,-74.9573,40.58956,-74.57438
201207,63576,402055,1,0.87,N,SHIP BOTTOM,39.6426,-74.1784,39.38556,-74.10704
201207,63576,402055,2,0.65,SSE,SURF CITY,39.6615,-74.1648,39.3969,-74.9888
201207,63576,402060,1,1.38,N,PETERSBURG,39.27,-74.73,39.162,-74.438
201207,63576,402067,1,0.0,N,PALERMO,39.23,-74.68,39.138,-74.408
201207,63576,402070,1,0.74,E,OCEAN CITY,39.278,-74.5664,39.1668,-74.33984
201207,63578,380619,1,1.86,WNW,EVANS,33.54,-82.16,33.324,-82.96
201207,63578,380620,1,1.8,SW,EVANS,33.51,-82.15,33.306,-82.9
201207,63578,380621,1,1.8,SW,EVANS,33.51,-82.15,33.306,-82.9
201207,63578,380622,1,2.07,N,GROVETOWN,33.48,-82.2,33.288,-82.12
201207,63578,380623,1,0.0,N,GROVETOWN,33.45,-82.2,33.27,-82.12
201207,63578,380624,1,0.0,N,DEARING,33.42,-82.38,33.252,-82.228
201207,63578,380625,1,3.5,N,WINFIELD,33.65,-82.39,33.39,-82.234
201207,63578,380626,1,0.0,N,THOMSON,33.47,-82.5,33.282,-82.3
201207,63578,380627,1,2.88,E,LEAH,33.67,-82.28,33.402,-82.168
201207,63578,380628,1,2.07,S,THOMSON,33.44,-82.5,33.264,-82.3
201207,63578,380629,1,0.69,N,LINCOLNTON,33.79,-82.48,33.474,-82.288
201207,63578,380630,1,0.9,NE,WAYNESBORO,33.09,-82.01,33.54,-82.6
201207,63578,380954,1,0.9,NE,WAYNESBORO,33.09,-82.01,33.54,-82.6
201205,63581,380708,1,1.37,WNW,ST MARYS ARPT,30.76,-81.57,30.456,-81.342
201205,63581,380710,1,4.12,WSW,KINGSLAND,30.77,-81.74,30.462,-81.444
201205,63582,380712,1,1.82,SW,HERO,30.6,-81.67,30.36,-81.402
201205,63582,380713,1,4.56,SE,CALLAHAN,30.52,-81.77,30.312,-81.462
201205,63583,380714,1,0.69,N,HOMERVILLE,31.04,-82.75,31.24,-82.45
201205,63583,380715,1,0.91,NE,NEWELL,30.94,-82.01,30.564,-82.6
201206,63584,387316,1,3.0,SE,SANBORN,30.0393,-84.5645,30.2358,-84.3387
201206,63584,387317,1,0.0,N,SANBORN,30.07,-84.6,30.42,-84.36
201206,63584,387318,1,7.0,SSE,CRAWFORDVILLE,30.0764,-84.3252,30.4584,-84.19512
201206,63584,387319,1,3.0,WNW,CRAWFORDVILLE,30.1866,-84.4164,30.11196,-84.24984
201206,63584,387320,1,0.0,N,ST MARKS,30.16,-84.2,30.96,-84.12
201206,63584,387321,1,2.0,NE,CRAWFORDVILLE,30.1905,-84.3463,30.1143,-84.20778
201206,63584,387322,1,0.0,N,WAKULLA SPRINGS,30.23,-84.3,30.138,-84.18
201206,63584,387323,1,0.0,N,MAYO,30.05,-83.17,30.3,-83.102
201206,63584,387324,1,8.2,SW,ST MARKS,30.0761,-84.297,30.4566,-84.1782
201206,63584,387325,1,2.0,SSE,WOODVILLE,30.2933,-84.2272,30.17598,-84.13632
201206,63584,387326,1,0.0,N,COOKS HAMMOCK,29.92,-83.27,29.552,-83.162
201206,63584,387327,1,0.91,NW,LEON SINKS,30.31,-84.35,30.186,-84.21
201206,63584,387328,1,7.7,SW,LAMONT,30.2912,-83.9013,30.17472,-83.54078
201206,63584,387329,1,0.0,N,HOPEWELL,30.38,-83.44,30.228,-83.264
201206,63584,387330,1,0.0,N,(AAF)APALACHICOLA ARPT,29.72,-85.02,29.432,-85.12
201206,63584,387331,1,4.0,NW,MAYO,30.0909,-83.2173,30.5454,-83.13038
201206,63584,387332,1,9.8,SW,MONTICELLO,30.4397,-83.9864,30.26382,-83.59184
201206,63584,387333,1,9.2,W,ST MARKS,30.16,-84.354,30.96,-84.2124
201206,63584,387334,1,0.0,N,(CTY)CROSS CITY ARPT,29.63,-83.1,29.378,-83.6
201206,63584,387335,1,2.0,NW,CROSS CITY,29.6505,-83.1436,29.3903,-83.8616
201206,63584,387336,1,1.2,ENE,MADISON,30.4667,-83.3914,30.28002,-83.23484
201206,63584,387337,1,0.0,N,LAMONT,30.37,-83.81,30.222,-83.486
201206,63584,387338,1,0.0,N,FOLEY,30.06,-83.53,30.36,-83.318
201206,63584,387339,1,1.1,SW,WACISSA,30.3387,-84.003,30.20322,-84.18
201206,63584,387340,1,0.0,N,MADISON,30.46,-83.41,30.276,-83.246
201206,63584,387341,1,8.3,NE,MADISON,30.5449,-83.3114,30.32694,-83.18684
201206,63584,387342,1,2.5,SE,TELOGIA,30.3244,-84.7804,30.19464,-84.46824
201206,63584,387343,1,0.0,N,ASHVILLE,30.61,-83.64,30.366,-83.384
201206,63584,387344,1,0.6,SE,PORT ST JOE,29.8039,-85.2829,29.48234,-85.16974
201206,63584,387345,1,1.0,NW,YELLOW JACKET,29.4702,-83.0118,29.28212,-83.708
201206,63584,387346,1,0.0,N,(TLH)TALLAHASSEE RGNL ARPT,30.39,-84.35,30.234,-84.21
201206,63584,387347,1,0.0,N,BRISTOL,30.42,-84.98,30.252,-84.588
201206,63584,387348,1,0.0,N,BLOXHAM,30.38,-84.62,30.228,-84.372
201206,63584,387350,1,6.63,SSW,COOKS HAMMOCK,29.8298,-83.3076,29.49788,-83.18456
201205,62603,374573,1,2.0,SW,PECOS,31.3995,-103.504,31.2397,-10.33024
201205,62603,374578,1,2.0,NW,FT STOCKTON,30.9005,-102.8939,30.5403,-10.253634
201205,62603,374579,1,2.0,SW,PECOS,31.3995,-103.504,31.2397,-10.33024
201205,62604,374438,1,0.0,N,WHITES CITY,32.17,-104.37,32.102,-10.4222
201205,62604,374534,1,12.0,S,ARTESIA,32.6563,-104.4,32.39378,-10.424
201205,62604,374539,1,3.0,N,ARTESIA,32.8734,-104.4,32.52404,-10.424
201205,62604,374546,1,8.0,NW,CARLSBAD,32.5019,-104.327,32.30114,-10.41962
201205,62604,374574,1,2.0,W,ARTESIA,32.83,-104.4345,32.498,-10.42607
201205,62604,374576,1,8.0,S,ARTESIA,32.7142,-104.4,32.42852,-10.424
201205,62604,381338,1,0.84,ESE,HAPPY VLY,32.4163,-104.2563,32.24978,-10.415378
201205,62604,381338,2,0.81,E,HAPPY VLY,32.4208,-104.2562,32.25248,-10.415372
201205,62604,381338,3,0.96,E,HAPPY VLY,32.4207,-104.2535,32.25242,-10.41521
201206,63553,382215,1,3.02,N,WOODBURN,41.1632,-84.8413,41.9792,-84.50478
201206,63553,382218,1,0.0,N,AMBOY,40.6,-85.93,40.36,-85.558
201206,63553,382219,1,2.68,WNW,SUMMIT,41.53,-85.07,41.318,-85.42
201206,63553,382220,1,0.69,N,LAOTTO,41.29,-85.2,41.174,-85.12
201206,63553,382221,1,0.69,S,HURSH,41.24,-84.97,41.144,-84.582
201206,63553,382222,1,1.04,E,CONCORDIA GARDENS,41.12,-85.08,41.72,-85.48
201206,63553,382223,1,0.86,NE,AUBURN DEKALB CO ARP,41.31,-85.06,41.186,-85.36
201206,63553,382226,1,0.0,N,HARTFORD CITY,40.45,-85.37,40.27,-85.222
201206,63553,382227,1,0.0,N,MONROEVILLE,40.97,-84.87,40.582,-84.522
201206,63553,382228,1,0.87,NE,GAS CITY,40.49,-85.61,40.294,-85.366
201206,63553,382229,1,0.86,SW,COLUMBIA CITY,41.16,-85.49,41.96,-85.294
201206,63553,382231,1,1.56,E,BROOKSIDE ESTATES,41.15,-85.05,41.9,-85.3
201206,63553,382232,1,1.73,NE,WABASH,40.82,-85.8,40.492,-85.48
201206,63553,382233,1,0.69,S,MEADOWBROOK,41.06,-85.03,41.36,-85.18
201206,63553,382234,1,1.25,ENE,SAGE ARPT,40.83,-84.9,40.498,-84.54
201206,63554,382242,1,0.52,W,ANTWERP,41.18,-84.74,41.108,-84.444
201206,63554,382243,1,0.74,SSW,LIMA,40.74,-84.1049,40.444,-84.6294
201206,63554,382246,1,0.52,W,VAN WERT,40.87,-84.58,40.522,-84.348
201206,63554,382247,1,1.05,W,LIMA,40.75,-84.12,40.45,-84.72
201206,63554,382248,1,0.69,S,ALLENTOWN,40.74,-84.18,40.444,-84.108
201206,63554,382249,1,4.64,SSW,AYERSVILLE,41.17,-84.32,41.102,-84.192
201206,63554,382251,1,2.32,NNW,OTTAWA PUTNAM CO ARP,41.06,-84.0,41.36,-84.0
201206,63554,382253,1,1.38,S,OTTAWA,41.0,-84.05,41.0,-84.3
201206,63554,382254,1,0.52,E,PANDORA,40.95,-83.96,40.57,-83.576
201206,63554,382255,1,2.2,WNW,CONVOY,40.93,-84.74,40.558,-84.444
201206,63554,382256,1,0.86,NW,PAULDING,41.14,-84.58,41.84,-84.348
201206,63554,382257,1,2.19,WSW,ANTWERP,41.17,-84.77,41.102,-84.462
201206,63554,382258,1,2.6,NW,CONVOY,40.95,-84.73,40.57,-84.438
201206,63554,382259,1,2.19,WSW,ANTWERP,41.17,-84.77,41.102,-84.462
201206,63554,382260,1,2.6,NW,CONVOY,40.95,-84.73,40.57,-84.438
201206,63554,382261,1,0.69,N,NAPOLEON,41.39,-84.13,41.234,-84.78
201206,63554,382262,1,0.52,W,COLUMBUS GROVE,40.92,-84.06,40.552,-84.36
201206,63554,382263,1,0.87,SW,LIMA,40.74,-84.11,40.444,-84.66
201206,63554,382264,1,2.69,ESE,PLEASANT BEND,41.17,-84.13,41.102,-84.78
201206,63554,382265,1,0.0,N,SCOTT,40.98,-84.57,40.588,-84.342
201206,63554,395243,1,0.53,W,COLUMBUS GROVE,40.9193,-84.0602,40.55158,-84.3612
201206,63554,395255,1,0.4,W,COLUMBUS GROVE,40.9194,-84.0576,40.55164,-84.3456
201206,63555,393124,1,0.96,NNW,MICHIGAN CITY,41.7321,-86.9092,41.43926,-86.54552
201206,63555,393125,1,2.97,NW,WARREN DUNES ST PRK,41.983,-86.617,41.5898,-86.3702
201206,63555,393127,1,0.72,W,ST. JOSEPH HARBOR,42.099,-86.494,42.594,-86.2964
201206,63557,380529,1,0.0,N,HECTOR,35.47,-92.95,35.282,-92.57
201206,63557,380530,1,0.0,N,BELLEVILLE,35.1,-93.45,35.6,-93.27
201206,63557,380709,1,3.0,W,APPLETON,35.42,-92.9233,35.252,-92.55398
201206,63557,380711,1,0.6,NNW,PLEASANT HILL,34.4575,-93.1752,34.2745,-93.10512
201205,63558,380531,1,0.9,N,RIVERTON,43.043,-108.3786,43.258,-10.822716
201205,63558,380532,1,0.0,N,(RIW)RIVERTON RGNL A,43.07,-108.45,43.42,-10.827
201205,63558,380536,1,16.76,SE,JEFFREY CITY,42.3403,-107.5728,42.20418,-10.734368
201205,63558,380894,1,0.0,N,(RIW)RIVERTON RGNL A,43.07,-108.45,43.42,-10.827
201207,63559,380534,1,0.82,NW,OLYMPIA MILLS,33.9897,-81.0284,33.59382,-81.1704
201207,63559,380534,2,0.8,NNW,COLUMBIA OWENS ARPT,33.981,-81.0046,33.5886,-81.276
201207,63559,380534,3,0.46,NE,COLUMBIA,34.0054,-81.0152,34.324,-81.912
201207,63559,380534,4,0.64,WSW,COLUMBIA,33.9966,-81.0304,33.59796,-81.1824
201207,63559,380535,1,2.36,NNW,CHERAW,34.71,-79.9,34.426,-79.54
201207,63559,380537,1,0.89,SE,RIVERS,34.71,-80.06,34.426,-80.36
201207,63559,380539,1,2.69,NW,KERSHAW MUNI ARPT,34.51,-80.63,34.306,-80.378
201207,63559,380541,1,1.38,N,CHESTERFIELD,34.75,-80.08,34.45,-80.48
201207,63559,380542,1,1.79,NE,CHERAW MUNI ARPT,34.74,-79.95,34.444,-79.57
201207,63559,380543,1,1.71,W,CAMP WELFARE,34.48,-81.0,34.288,-81.0
201207,63559,380544,1,1.79,NW,CHERAW,34.7,-79.9,34.42,-79.54
201207,63559,380545,1,2.82,SSE,EDGEFIELD,33.74,-81.91,33.444,-81.546
201207,63559,380546,1,2.87,W,PINEHOUSE XRDS,33.73,-81.9,33.438,-81.54
201207,63559,380547,1,1.5,SSW,PINEHOUSE XRDS,33.71,-81.86,33.426,-81.516
201207,63559,380548,1,3.97,SW,FLINT HILL,34.38,-81.0,34.228,-81.0
201207,63559,380549,1,4.18,S,RIVERS,34.66,-80.08,34.396,-80.48
201207,63559,380550,1,0.57,W,PAGELAND,34.77,-80.39,34.462,-80.234
201207,63559,380551,1,2.15,SSW,RIVERS,34.69,-80.08,34.414,-80.48
201207,63559,380552,1,0.9,SE,STOVER,34.54,-81.01,34.324,-81.6
201207,63559,380553,1,0.57,E,WINNSBORO,34.38,-81.09,34.228,-81.54
201207,63559,380554,1,1.14,E,PATRICK,34.57,-80.03,34.342,-80.18
201207,63559,380555,1,0.57,E,PLUM BRANCH,33.85,-82.26,33.51,-82.156
201207,63559,380557,1,0.9,NE,PATRICK,34.58,-80.04,34.348,-80.24
201207,63559,380558,1,0.69,N,BATESBURG,33.91,-81.55,33.546,-81.33
201207,63559,380560,1,0.9,SW,GILBERT,33.91,-81.39,33.546,-81.234
201207,63559,380562,1,0.0,N,RED BANK,33.93,-81.23,33.558,-81.138
201207,63559,380563,1,0.57,E,LEESVILLE,33.92,-81.51,33.552,-81.306
201207,63559,380564,1,0.57,W,PAGELAND,34.77,-80.39,34.462,-80.234
201207,63559,380565,1,0.57,W,GILBERT,33.92,-81.39,33.552,-81.234
201207,63559,380566,1,0.69,S,HAPPY TOWN,33.99,-81.08,33.594,-81.48
201207,63559,380567,1,1.5,NNW,SALUDA CO ARPT,33.95,-81.81,33.57,-81.486
201207,63559,380568,1,0.57,W,GILBERT,33.92,-81.39,33.552,-81.234
201207,63559,380571,1,0.9,NW,LEXINGTON,33.99,-81.26,33.594,-81.156
201207,63559,380572,1,3.51,WNW,EDMUND,33.88,-81.26,33.528,-81.156
201207,63559,380574,1,2.21,NW,EDMUND,33.89,-81.23,33.534,-81.138
201207,63559,380575,1,3.64,NNW,HORREL HILL,34.0,-80.87,34.0,-80.522
201207,63559,380576,1,1.34,ENE,LEXINGTON,33.99,-81.23,33.594,-81.138
201207,63559,380577,1,2.21,SW,PLUM BRANCH,33.83,-82.3,33.498,-82.18
201207,63559,380578,1,3.7,ENE,WOODFIELD,34.05,-80.87,34.3,-80.522
201207,63559,380579,1,0.57,W,QUINTS XRDS,33.98,-80.36,33.588,-80.216
201207,63559,380580,1,2.39,ENE,WOODFIELD,34.04,-80.89,34.24,-80.534
201207,63559,380582,1,2.39,ENE,WOODFIELD,34.04,-80.89,34.24,-80.534
201207,63559,380583,1,1.8,SW,POCALLA SPGS,33.85,-80.37,33.51,-80.222
201207,63559,380584,1,3.09,SE,BALLENTINE,34.09,-81.19,34.54,-81.114
201207,63559,380585,1,1.34,ENE,LEXINGTON,33.99,-81.23,33.594,-81.138
201207,63559,380586,1,2.39,ENE,WOODFIELD,34.04,-80.89,34.24,-80.534
201207,63559,380587,1,1.8,NE,ARTHUR,33.99,-81.13,33.594,-81.78
201207,63559,380588,1,0.9,NE,MERIWETHER,33.66,-82.16,33.396,-82.96
201207,63559,380589,1,2.99,SSW,GABLE,33.78,-80.12,33.468,-80.72
201207,63559,380590,1,2.39,ENE,WOODFIELD,34.04,-80.89,34.24,-80.534
201207,63559,380591,1,0.69,S,SYRUP,34.09,-81.33,34.54,-81.198
201207,63559,380592,1,0.69,N,BATH,33.51,-81.87,33.306,-81.522
201207,63559,380593,1,3.5,S,HUGH PT,34.7,-80.41,34.42,-80.246
201207,63559,380594,1,1.15,E,MAYSON,34.03,-81.86,34.18,-81.516
201207,63559,380595,1,0.0,N,MANNING CLARENDON AR,33.58,-80.22,33.348,-80.132
201207,63559,380596,1,0.9,SW,AIKEN,33.54,-81.73,33.324,-81.438
201207,63559,380597,1,0.69,N,EASTOVER,33.88,-80.7,33.528,-80.42
201207,63559,380598,1,2.39,ENE,WOODFIELD,34.04,-80.89,34.24,-80.534
201207,63559,380599,1,0.9,NW,LEXINGTON,33.99,-81.26,33.594,-81.156
201207,63559,380600,1,0.58,W,OLAR,33.18,-81.19,33.108,-81.114
201207,63559,380601,1,0.69,N,BATESBURG,33.91,-81.55,33.546,-81.33
201207,63559,380602,1,0.69,N,BATESBURG,33.91,-81.55,33.546,-81.33
201207,63559,380603,1,4.1,W,COPE,33.39,-81.07,33.234,-81.42
201207,63559,380604,1,0.0,N,BAMBERG,33.3,-81.03,33.18,-81.18
201205,62652,374731,1,3.7,NW,ROSE,42.23,-99.53,42.138,-99.318
201206,62654,374732,1,5.53,NNW,PETERSON STATION,39.3,-117.58,39.18,-11.7348
201206,62654,374732,2,6.06,N,PETERSON STATION,39.3166,-117.5116,39.18996,-11.730696
201206,62655,374909,1,0.69,N,RIPLEY,34.76,-87.12,34.456,-87.72
201206,62655,374910,1,0.57,E,ATHENS,34.8,-86.97,34.48,-86.582
201206,62655,374911,1,1.33,ENE,MT HESTER,34.73,-88.0,34.438,-88.0
201206,62655,374912,1,0.57,W,TUSCUMBIA,34.73,-87.71,34.438,-87.426
201206,62655,374913,1,0.0,N,SHEFFIELD,34.77,-87.7,34.462,-87.42
201206,62655,374914,1,0.69,S,RUSSELLVILLE,34.51,-87.73,34.306,-87.438
201206,62655,374915,1,0.29,SSE,HARTSELLE,34.4261,-86.9283,34.25566,-86.55698
201206,62655,374916,1,1.55,SSW,TRINITY,34.5997,-87.0915,34.35982,-87.549
201205,62794,375882,3,0.71,WSW,LONGVIEW,38.7277,-77.4828,38.43662,-77.28968
201205,62794,375882,4,0.63,W,LONGVIEW,38.73,-77.4817,38.438,-77.28902
201205,62794,375883,1,1.48,SSE,MANASSAS ARPT,38.7,-77.51,38.42,-77.306
201205,62794,375883,2,1.05,NNW,BRENTSVILLE,38.6939,-77.5079,38.41634,-77.30474
201205,62794,375883,3,1.18,NW,BRENTSVILLE,38.6935,-77.5134,38.4161,-77.30804
201205,62794,375883,4,1.3,SSE,MANASSAS ARPT,38.7017,-77.5146,38.42102,-77.30876
201205,62794,375884,1,1.45,NW,BRENTSVILLE,38.6948,-77.5192,38.41688,-77.31152
201205,62794,375884,2,1.23,N,BRENTSVILLE,38.6977,-77.4992,38.41862,-77.29952
201205,62794,375884,3,1.09,N,BRISTOW,38.7356,-77.5274,38.44136,-77.31644
201205,62794,375884,4,0.67,ENE,NOKESVILLE,38.7046,-77.569,38.42276,-77.3414
201204,62795,377080,1,0.0,N,PANOLA,32.95,-88.27,32.57,-88.162
201204,62795,377082,1,2.8,WSW,MT HEBRON,32.8479,-88.1205,32.50874,-88.723
201204,62795,377083,1,0.0,N,HAVANA,32.9,-87.62,32.54,-87.372
201204,62795,377085,1,0.69,S,CREWS,33.89,-88.13,33.534,-88.78
201204,62795,377086,1,2.99,NNW,CREWS,33.94,-88.15,33.564,-88.9
201204,62795,377088,1,0.9,NE,VERNON,33.76,-88.11,33.456,-88.66
201204,62795,377089,1,1.34,WNW,HAMILTON ARPT,34.14,-88.02,34.84,-88.12
201204,62795,377091,1,4.15,N,PLEASANT RIDGE,34.23,-87.98,34.138,-87.588
201204,62795,377092,1,1.15,E,GUIN,33.9704,-87.8999,33.58224,-87.53994
201204,62795,377093,1,0.69,N,FAYETTE,33.69,-87.83,33.414,-87.498
201204,62795,377094,1,5.16,E,JASPER WALKER CO ARP,33.87,-87.18,33.522,-87.108
201204,62795,377095,1,0.57,E,POPLAR SPGS,34.03,-87.39,34.18,-87.234
201204,62795,377096,1,0.9,NW,CORDOVA,33.76,-87.19,33.456,-87.114
201204,62795,377097,1,0.9,NE,CORDOVA,33.76,-87.17,33.456,-87.102
201204,62795,377098,1,0.9,NW,EMPIRE,33.81,-87.01,33.486,-87.6
201204,62795,377099,1,0.9,NW,EMPIRE,33.81,-87.01,33.486,-87.6
201204,62795,377100,1,0.58,W,ADAMSVILLE,33.6,-86.96,33.36,-86.576
201204,62795,377101,1,0.9,SE,BERLIN,32.24,-86.99,32.144,-86.594
201204,62795,377102,1,1.8,NE,CROCKER JCT,33.67,-86.8,33.402,-86.48
201204,62795,377103,1,0.0,N,SCOTROCK,33.25,-86.82,33.15,-86.492
201204,62795,377104,1,0.58,E,MAYLENE,33.2,-86.86,33.12,-86.516
201204,62795,377105,1,1.95,WNW,JEMISON,32.9591,-86.7818,32.57546,-86.46908
201204,62795,377106,1,1.86,WNW,HOMEWOOD,33.49,-86.8,33.294,-86.48
201204,62795,377107,1,1.16,E,CALERA,33.1,-86.75,33.6,-86.45
201204,62795,377108,1,0.58,E,MARBURY,32.7,-86.47,32.42,-86.282
201204,62795,377110,1,0.9,NE,VINCENT,33.39,-86.41,33.234,-86.246
201204,62795,377581,1,4.01,NNE,UNIONTOWN,32.5039,-87.4946,32.30234,-87.29676
201204,62795,377582,1,1.5,NNE,SELMA SKYHARBOR ARPT,32.39,-87.09,32.234,-87.54
201204,62795,377583,1,0.12,WSW,ALABASTER SHELBY ARP,33.1796,-86.782,33.10776,-86.4692
201204,62795,377598,1,2.31,NNW,MINERAL SPGS,32.9798,-86.6881,32.58788,-86.41286
201204,62795,378593,1,1.38,S,CROPWELL,33.53,-86.27,33.318,-86.162
201204,62795,378594,1,0.71,E,TALLADEGA,33.4308,-86.0878,33.25848,-86.5268
201204,62796,375561,1,0.58,W,MIGNON,33.18,-86.26,33.108,-86.156
201204,62796,375563,1,0.0,N,IRONATON,33.42,-85.98,33.252,-85.588
201206,62798,394322,1,2.0,SE,SPARTA,41.0095,-74.6229,41.57,-74.37374
201206,62798,394335,1,0.0,N,LAKE HOPATCONG,40.95,-74.63,40.57,-74.378
201206,62798,394344,1,3.0,SSW,DOVER,40.8399,-74.572,40.50394,-74.3432
201206,62798,394356,1,3.0,SE,BERNARDSVILLE,40.6893,-74.5295,40.41358,-74.3177
201204,62801,375564,1,0.69,N,BLACK CREEK,35.64,-77.93,35.384,-77.558
201204,62801,375564,2,2.63,ESE,ELM CITY,35.78,-77.83,35.468,-77.498
201204,62801,375565,1,1.68,W,LEGGETT,35.98,-77.6,35.588,-77.36
201204,62801,375565,2,1.49,NNE,LEGGETT,36.0,-77.56,36.0,-77.336
201205,62802,375653,1,1.62,WNW,COOPERVILLE,44.94,-73.43,44.564,-73.258
201205,62802,375656,1,0.5,E,TICONDEROGA,43.85,-73.42,43.51,-73.252
201205,62802,375658,1,3.49,S,MORIAH,44.0,-73.49,44.0,-73.294
201205,62802,375659,1,0.5,W,MORIAH,44.05,-73.51,44.3,-73.306
201205,62802,375661,1,2.13,NNE,(PLB)PLATTSBURGH ARP,44.71,-73.51,44.426,-73.306
201205,62802,375663,1,0.85,SW,TUPPER LAKE,44.22,-74.46,44.132,-74.276
201205,62802,375664,1,0.5,W,CROWN PT,43.95,-73.43,43.57,-73.258
201205,62802,375667,1,0.69,N,WILMINGTON,44.39,-73.82,44.234,-73.492
201205,62802,375670,1,0.5,W,MORIAH,44.05,-73.51,44.3,-73.306
201205,62802,375672,1,0.85,SW,KEENE VLY,44.19,-73.79,44.114,-73.474
201205,62802,375680,1,0.0,N,PLATTSBURGH,44.7,-73.45,44.42,-73.27
201206,62803,375897,1,0.0,N,PLATTSBURGH,44.7,-73.45,44.42,-73.27
201206,62803,375898,1,0.85,NW,ALTONA,44.89,-73.66,44.534,-73.396
201206,62803,375899,1,0.69,N,ELLENBURG DEPOT,44.91,-73.8,44.546,-73.48
201206,62803,375900,1,0.85,NW,ELLENBURG,44.89,-73.84,44.534,-73.504
201206,62803,375901,1,0.49,W,MALONE,44.85,-74.29,44.51,-74.174
201206,62803,375902,1,1.47,W,HOGANSBURG,44.97,-74.66,44.582,-74.396
201206,62803,375903,1,0.85,NW,CHATEAUGAY,44.93,-74.08,44.558,-74.48
201206,62803,375904,1,0.49,E,SARANAC,44.65,-73.74,44.39,-73.444
201206,62803,375905,1,0.0,N,CADYVILLE,44.7,-73.63,44.42,-73.378
201206,62803,375906,1,0.0,N,PERU,44.58,-73.53,44.348,-73.318
201206,62803,375907,1,0.0,N,DANNEMORA,44.72,-73.72,44.432,-73.432
201206,62803,375908,1,0.49,W,BRUSHTON,44.83,-74.51,44.498,-74.306
201206,62803,375909,1,0.49,W,BRUSHTON,44.83,-74.51,44.498,-74.306
201206,62803,375910,1,1.47,W,HOGANSBURG,44.97,-74.66,44.582,-74.396
201206,62803,375911,1,0.85,SE,BLOOMINGDALE,44.41,-74.09,44.246,-74.54
201206,62803,375912,1,1.2,NW,SOUTH BOMBAY,44.89,-74.55,44.534,-74.33
201206,62803,375913,1,0.49,W,DICKINSON,44.75,-74.56,44.45,-74.336
201206,62803,375914,1,0.85,NW,ELLENBURG,44.89,-73.84,44.534,-73.504
201206,62803,375915,1,0.49,W,BRUSHTON,44.83,-74.51,44.498,-74.306
201206,62803,375916,1,1.47,W,MOIRA,44.82,-74.56,44.492,-74.336
201206,62803,375917,1,1.47,W,HOGANSBURG,44.97,-74.66,44.582,-74.396
201206,62804,375918,1,1.21,SW,PITTSFIELD,43.77,-72.84,43.462,-72.504
201206,62804,375919,1,0.69,N,COLCHESTER,44.54,-73.15,44.324,-73.9
201206,62804,375920,1,0.0,N,NASHVILLE,44.45,-72.93,44.27,-72.558
201206,62804,375921,1,0.69,S,JEFFERSONVILLE,44.64,-72.83,44.384,-72.498
201206,62804,375922,1,0.85,SW,BERLIN,44.21,-72.58,44.126,-72.348
201206,62804,375923,1,0.69,N,DUXBURY,44.34,-72.75,44.204,-72.45
201205,62805,375567,1,0.49,W,WEST CHAZY,44.82,-73.51,44.492,-73.306
201205,62805,375568,1,0.85,SW,COOPERVILLE,44.92,-73.41,44.552,-73.246
201205,62805,375569,1,0.0,N,CHAZY,44.88,-73.43,44.528,-73.258
201205,62805,375570,1,2.42,SW,WADHAMS,44.21,-73.51,44.126,-73.306
201205,62805,375571,1,1.21,NE,ESSEX,44.31,-73.35,44.186,-73.21
201205,62806,375572,1,0.85,NW,ISLE LA MOTTE,44.88,-73.34,44.528,-73.204
201205,62806,375573,1,0.69,S,FERRISBURG,44.19,-73.25,44.114,-73.15
201205,62806,375574,1,0.0,N,HARDWICK,44.5,-72.37,44.3,-72.222
201205,62806,375575,1,1.98,W,STARKSBORO,44.23,-73.09,44.138,-73.54
201205,62806,375576,1,0.69,N,CHARLOTTE,44.31,-73.25,44.186,-73.15
201205,62806,375577,1,1.2,NW,WILLISTON,44.44,-73.09,44.264,-73.54
201205,62806,375578,1,0.0,N,LYNDONVILLE,44.53,-72.0,44.318,-72.0
201205,62806,375579,1,0.0,N,ANDOVER,43.28,-72.7,43.168,-72.42
201205,62806,375581,1,0.5,E,BASIN HARBOR,44.2,-73.36,44.12,-73.216
201206,62821,375768,1,0.0,N,NEWBERRY ARPT,34.32,-81.63,34.192,-81.378
201206,62821,375768,2,1.43,NE,NEWBERRY ARPT,34.3347,-81.6123,34.20082,-81.36738
201206,62821,375769,1,0.0,N,NEWBERRY,34.28,-81.62,34.168,-81.372
201206,62822,375770,1,2.38,ESE,CAMERON,33.5322,-80.6847,33.31932,-80.41082
201206,62822,375770,2,3.46,ESE,CAMERON,33.5335,-80.6633,33.3201,-80.39798
201206,62822,375771,1,0.9,SW,COLUMBIA,33.99,-81.03,33.594,-81.18
201206,62822,375771,2,0.66,NW,OLYMPIA MILLS,33.9866,-81.0285,33.59196,-81.171
201206,63038,383731,2,1.62,ESE,BELLE PLAINE,44.6199,-93.7402,44.37194,-93.44412
201206,63038,383734,1,2.63,SSE,BURNSVILLE,44.7671,-93.2931,44.46026,-93.17586
201206,63038,383734,2,2.56,SE,BURNSVILLE,44.7694,-93.2907,44.46164,-93.17442
201206,63038,383735,1,1.95,SW,LAKEVILLE,44.6492,-93.2767,44.38952,-93.16602
201206,63038,383735,2,1.54,E,LAKEVILLE,44.6665,-93.219,44.3999,-93.1314
201206,63038,383736,1,1.47,NNE,EAGAN,44.82,-93.16,44.492,-93.96
201206,63038,383738,1,1.21,SW,ROSEMOUNT,44.7173,-93.1469,44.43038,-93.8814
201206,63038,383740,1,0.0,N,HASTINGS,44.73,-92.85,44.438,-92.51
201206,63038,383741,1,3.17,W,ROSEMOUNT,44.7232,-93.1939,44.43392,-93.11634
201206,63038,383741,2,1.79,WSW,ROSEMOUNT,44.7224,-93.1648,44.43344,-93.9888
201206,63038,383742,1,0.21,SSW,SOUTH ST PAUL,44.8771,-93.0309,44.52626,-93.1854
201206,63038,383744,1,2.7,NNE,BLOOMINGTON,44.857,-93.302,44.5142,-93.1812
201205,62496,373910,1,1.15,E,JAMISON,33.58,-80.8,33.348,-80.48
201205,62496,373911,1,2.41,ESE,GREAT BRANCH,33.49,-80.93,33.294,-80.558
201205,62496,373912,1,1.8,NE,CORDOVA,33.45,-80.91,33.27,-80.546
201205,62497,373939,1,0.54,W,BRANDENBURG,38.0,-86.18,38.0,-86.108
201205,62497,373943,1,2.14,NE,SIROCCO,38.0,-86.25,38.0,-86.15
201205,62497,373950,1,0.54,E,DOE VLY ESTATES,38.0,-86.09,38.0,-86.54
201205,62497,373961,1,1.25,W,AUDUBON PARK,38.2035,-85.7526,38.1221,-85.45156
201205,62497,373961,2,1.24,W,AUDUBON PARK,38.2026,-85.7526,38.12156,-85.45156
201205,62497,373961,3,1.12,W,AUDUBON PARK,38.2027,-85.7503,38.12162,-85.45018
201205,62497,373961,4,1.14,W,AUDUBON PARK,38.2032,-85.7505,38.12192,-85.4503
201205,62497,373964,1,0.54,E,ST DENNIS,38.22,-85.81,38.132,-85.486
201205,62497,373964,2,0.34,ENE,ST DENNIS,38.2217,-85.8141,38.13302,-85.48846
201205,62497,373964,3,0.64,ENE,ST DENNIS,38.225,-85.8101,38.135,-85.48606
201205,62497,373964,4,0.72,ENE,ST DENNIS,38.224,-85.8078,38.1344,-85.48468
201205,62497,373971,1,0.69,ESE,LOUISVILLE,38.2261,-85.7683,38.13566,-85.46098
201205,62497,373971,2,0.61,ESE,LOUISVILLE,38.2265,-85.7698,38.1359,-85.46188
201205,62497,373971,3,0.61,ESE,LOUISVILLE,38.227,-85.7695,38.1362,-85.4617
201205,62497,373971,4,0.67,ESE,LOUISVILLE,38.2269,-85.7683,38.13614,-85.46098
201205,62497,373976,1,0.52,E,LOUISVILLE,38.2304,-85.7704,38.13824,-85.46224
201205,62497,373976,2,0.6,E,LOUISVILLE,38.2304,-85.7689,38.13824,-85.46134
201205,62497,373976,3,0.6,E,LOUISVILLE,38.2294,-85.7691,38.13764,-85.46146
201205,62497,373976,4,0.52,E,LOUISVILLE,38.2297,-85.7704,38.13782,-85.46224
201205,62497,373979,1,1.33,NW,HIGHLANDS,38.2452,-85.6951,38.14712,-85.41706
201205,62497,373979,2,1.24,NNW,HIGHLANDS,38.246,-85.6903,38.1476,-85.41418
201205,62497,373979,3,1.16,NNW,HIGHLANDS,38.2447,-85.6901,38.14682,-85.41406
201205,62497,373979,4,1.3,NW,HIGHLANDS,38.2447,-85.6949,38.14682,-85.41694
201205,62497,373984,1,0.81,SSW,(LOU)BOWMAN FLD LOUI,38.2188,-85.6745,38.13128,-85.4047
201205,62497,373984,2,0.78,SSE,HIGHLANDS,38.2195,-85.6751,38.1317,-85.40506
201205,62497,373984,3,0.79,SSE,HIGHLANDS,38.219,-85.6761,38.1314,-85.40566
201205,62497,373984,4,0.83,SSE,HIGHLANDS,38.2186,-85.6752,38.13116,-85.40512
201205,62497,373985,1,1.48,SSE,ST DENNIS,38.2,-85.81,38.12,-85.486
201205,62497,373986,1,1.48,NNW,AUDUBON PARK,38.22,-85.74,38.132,-85.444
201205,62497,386748,1,1.7,SE,LOUISVILLE,38.2132,-85.7571,38.12792,-85.45426
201205,62497,386748,2,1.51,SE,LOUISVILLE,38.214,-85.7609,38.1284,-85.45654
201205,62497,386748,3,1.41,ESE,LOUISVILLE,38.22,-85.7573,38.132,-85.45438
201205,62497,386748,4,1.51,ESE,LOUISVILLE,38.2193,-85.7558,38.13158,-85.45348
201205,62498,379221,1,0.69,N,VINE VLY,42.73,-77.32,42.438,-77.192
201205,62498,379222,1,2.05,NW,BREWERTON,43.25,-76.18,43.15,-76.108
201205,62498,379223,1,0.51,W,CORNING,42.15,-77.06,42.9,-77.36
201205,62498,379224,1,1.54,E,GIBSON,42.15,-77.0,42.9,-77.0
201205,62498,379225,1,0.0,N,FORESTPORT,43.45,-75.22,43.27,-75.132
201205,62498,379226,1,1.47,SSE,WATERLOO,42.88,-76.86,42.528,-76.516
201205,62498,379227,1,2.86,ENE,DUNN BROOK,43.42,-75.33,43.252,-75.198
201205,62498,379228,1,2.31,SSW,LEWISTON MANOR,43.04,-76.14,43.24,-76.84
201205,62498,379229,1,0.0,N,SEMPRONIUS,42.73,-76.32,42.438,-76.192
201205,62498,379230,1,0.0,N,AVA,43.42,-75.48,43.252,-75.288
201205,62498,379231,1,0.51,W,STOCKBRIDGE,42.98,-75.59,42.588,-75.354
201205,62498,379232,1,0.0,N,CLINTON,43.05,-75.38,43.3,-75.228
201205,62498,379233,1,0.0,N,SHERBURNE,42.68,-75.5,42.408,-75.3
201205,62498,379234,1,0.0,N,BOONVILLE,43.48,-75.33,43.288,-75.198
201205,62498,379235,1,2.76,S,BOONVILLE,43.44,-75.33,43.264,-75.198
201205,62498,379236,1,0.0,N,ALDER CREEK,43.42,-75.22,43.252,-75.132
201205,62498,379237,1,0.0,N,MEMPHIS,43.08,-76.38,43.48,-76.228
201205,62498,379238,1,0.0,N,JORDAN,43.07,-76.47,43.42,-76.282
201205,62498,379239,1,0.51,W,TULLY,42.8,-76.11,42.48,-76.66
201205,62498,379243,1,1.23,SW,SENECA FALLS,42.91,-76.8,42.546,-76.48
201205,62498,379244,1,2.91,SE,WEST NEWARK,42.22,-76.19,42.132,-76.114
201205,62498,379245,1,0.86,NW,WHITNEY PT,42.34,-75.98,42.204,-75.588
201205,62498,379246,1,0.0,N,LISLE,42.35,-76.0,42.21,-76.0
201205,62498,379247,1,0.0,N,SMITHVILLE FLATS,42.4,-75.8,42.24,-75.48
201205,62498,379248,1,0.0,N,ENDWELL,42.12,-76.02,42.72,-76.12
201205,62498,379249,1,0.69,S,FLEISCHMANNS,42.16,-74.53,42.96,-74.318
201205,62498,379250,1,0.86,SE,BROADACRES,42.16,-75.89,42.96,-75.534
201205,62498,379251,1,0.0,N,LIBERTY,41.8,-74.75,41.48,-74.45
201205,62498,379252,1,0.51,W,NEW BERLIN,42.62,-75.34,42.372,-75.204
201205,62498,379253,1,3.66,W,LITCHFIELD,42.01,-76.54,42.6,-76.324
201205,62498,379254,1,0.0,N,WALTON,42.17,-75.13,42.102,-75.78
201205,62498,379255,1,0.51,E,DELHI,42.28,-74.91,42.168,-74.546
201205,62498,379256,1,2.07,N,SHERBURNE,42.71,-75.5,42.426,-75.3
201205,62498,379257,1,0.0,N,LAKEMONT,42.52,-76.92,42.312,-76.552
201205,62498,379258,1,0.52,E,MONTICELLO,41.65,-74.69,41.39,-74.414
201205,62498,379259,1,0.0,N,ERIN,42.18,-76.67,42.108,-76.402
201205,62498,379260,1,4.31,NW,LOWES CORNERS,41.92,-74.57,41.552,-74.342
201205,62498,379261,1,0.51,E,DELHI,42.28,-74.91,42.168,-74.546
201205,62498,379273,1,0.86,SW,ROSE HILL,42.84,-76.91,42.504,-76.546
201205,62498,379273,2,1.23,NE,BRIDGEPORT,42.93,-76.73,42.558,-76.438
201205,62498,379275,1,1.23,SW,SENECA FALLS,42.91,-76.8,42.546,-76.48
201205,62499,379285,1,0.69,N,CANTON,41.66,-76.85,41.396,-76.51
201205,62499,379286,1,0.0,N,WAVERLY,41.52,-75.72,41.312,-75.432
201205,62499,379287,1,0.0,N,SWEET VLY,41.28,-76.15,41.168,-76.9
201205,62499,379288,1,0.86,SE,CHAPMAN,41.54,-75.59,41.324,-75.354
201203,62500,373990,1,0.89,NW,LOUDON,35.74,-84.36,35.444,-84.216
201203,62500,373991,1,0.0,N,WEST KNOXVILLE,35.97,-83.95,35.582,-83.57
201203,62500,373993,1,1.38,S,RATHBURN,35.26,-85.17,35.156,-85.102
201203,62500,373995,1,1.49,SSW,MC GHEE,35.6,-84.23,35.36,-84.138
201203,62500,373997,1,3.13,ENE,ACORN,35.49,-84.18,35.294,-84.108
201203,62500,373998,1,3.13,ENE,ACORN,35.49,-84.18,35.294,-84.108
201203,62500,373999,1,1.78,SE,CLINTON,36.1,-84.11,36.6,-84.66
201203,62500,374019,1,1.81,ENE,WINONA,36.39,-84.4,36.234,-84.24
201203,62500,374020,1,0.56,W,LAKE CITY,36.22,-84.16,36.132,-84.96
201203,62503,374001,1,1.33,ENE,PERSIMMON CREEK,35.09,-84.15,35.54,-84.9
201204,62505,374003,1,1.31,WNW,JONESVILLE,36.69,-83.12,36.414,-83.72
201204,62505,374003,2,0.75,N,JONESVILLE,36.6909,-83.1,36.41454,-83.6
201204,62505,374003,3,0.0,WSW,JONESVILLE,36.68,-83.1,36.408,-83.6
201204,62505,374003,4,1.0,W,JONESVILLE,36.68,-83.1181,36.408,-83.7086
201204,62506,374004,1,4.45,E,MILWAUKEE,36.4,-77.15,36.24,-77.9
201203,62507,374013,1,1.31,WNW,GATE CITY,36.64,-82.6,36.384,-82.36
201203,62507,374014,1,0.69,N,GATE CITY,36.64,-82.58,36.384,-82.348
201203,62507,374127,1,1.66,SSW,HASKELL,36.63,-82.2165,36.378,-82.1299
201203,62507,374127,2,1.39,SSW,HASKELL,36.6305,-82.2059,36.3783,-82.12354
201203,62509,374022,1,2.64,NW,DODGE CITY,37.78,-100.05,37.468,-10.03
201203,62509,374023,1,0.0,N,LARNED,38.18,-99.1,38.108,-99.6
201203,62509,374024,1,2.29,ENE,WINDTHORST,37.78,-99.59,37.468,-99.354
201203,62509,374025,1,3.06,ENE,WINDTHORST,37.79,-99.58,37.474,-99.348
201203,62509,374026,1,2.75,E,DEERHEAD,37.23,-98.87,37.138,-98.522
201203,62509,374027,1,2.31,ENE,DEERHEAD,37.24,-98.88,37.144,-98.528
201203,62509,374028,1,1.49,NNE,COATS,37.54,-98.82,37.324,-98.492
201203,62511,374029,1,9.02,NE,GARDEN CITY,38.06,-100.75,38.36,-10.045
201203,62511,374030,1,0.0,N,AMY,38.48,-100.6,38.288,-10.036
201206,62847,375929,1,2.0,ESE,ROCKERVILLE,43.9389,-103.3129,43.56334,-10.318774
201206,62847,375931,1,0.0,N,CUSTER,43.77,-103.6,43.462,-10.336
201206,62847,375932,1,0.7,WNW,CUSTER,43.7751,-103.6121,43.46506,-10.336726
201206,62847,391213,1,0.0,N,PRINGLE,43.6,-103.6,43.36,-10.336
201206,62847,391218,1,4.33,ENE,CUSTER,43.784,-103.5153,43.4704,-10.330918
201206,62848,375930,1,0.31,SSW,SPEARFISH ARPT,44.4758,-103.7822,44.28548,-10.346932
201206,62848,375930,2,2.24,ESE,SPEARFISH ARPT,44.4713,-103.7362,44.28278,-10.344172
201206,62848,391211,1,0.0,N,DEADWOOD,44.38,-103.7,44.228,-10.342
201206,62849,375944,1,8.0,W,HOT SPRINGS,43.43,-103.6394,43.258,-10.338364
201206,62849,398193,1,3.42,ESE,ARGYLE,43.5077,-103.589,43.30462,-10.33534
201206,62850,375945,1,2.81,SE,NEMO,44.1565,-103.4678,44.939,-10.328068
201206,62851,375950,1,6.92,SSW,POTATO CREEK,43.4399,-102.06,43.26394,-10.236
201206,62852,375955,1,3.0,N,CACTUS FLATS,43.8734,-101.9,43.52404,-10.154
201206,62655,394648,1,0.0,N,HUNTSVILLE,34.73,-86.62,34.438,-86.372
201206,62655,395898,1,1.0,N,TOWN CREEK,34.6945,-87.4,34.4167,-87.24
201206,62655,395900,1,0.0,N,HATTON,34.57,-87.42,34.342,-87.252
201206,62655,395902,1,0.0,N,COURTLAND,34.67,-87.3,34.402,-87.18
201206,62656,374738,1,3.35,W,HILL TOP,36.15,-93.28,36.9,-93.168
201206,62656,374739,1,0.0,N,OLYPHANT,35.52,-91.38,35.312,-91.228
201206,62656,374740,1,0.0,N,OIL TROUGH,35.63,-91.47,35.378,-91.282
201206,62656,374742,1,3.0,ENE,BOTKINBURG,35.7166,-92.4706,35.42996,-92.28236
201206,62656,374743,1,0.0,N,OARK,35.68,-93.58,35.408,-93.348
201206,62656,374744,1,0.0,N,HICKORY FLAT,35.48,-91.75,35.288,-91.45
201206,62656,374745,1,0.0,N,RUSSELLVILLE,35.28,-93.13,35.168,-93.78
201206,62656,374746,1,0.0,N,LONDON,35.33,-93.25,35.198,-93.15
201206,62656,374747,1,0.0,N,OPPELO,35.1,-92.77,35.6,-92.462
201206,62656,374748,1,0.0,N,BIGELOW,35.0,-92.63,35.0,-92.378
201206,62656,374749,1,0.0,N,MOUNTAIN HOME,36.33,-92.38,36.198,-92.228
201206,62656,374750,1,0.0,N,MOUNTAIN HOME,36.33,-92.38,36.198,-92.228
201206,62656,374751,1,0.0,N,CLINTON,35.58,-92.47,35.348,-92.282
201206,62656,374752,1,0.0,N,PIERCETOWN,35.97,-93.07,35.582,-93.42
201206,62656,374753,1,2.15,SSW,LONE PINE,35.52,-93.53,35.312,-93.318
201206,62656,374754,1,0.89,WNW,BATESVILLE,35.777,-91.6634,35.4662,-91.39804
201206,62656,374755,1,0.0,N,LONDON,35.33,-93.25,35.198,-93.15
201206,62656,374756,1,0.0,N,COTTER,36.27,-92.53,36.162,-92.318
201206,62656,374757,1,0.0,N,MOUNTAIN HOME,36.33,-92.38,36.198,-92.228
201206,62656,374758,1,1.32,W,EDGEMONT,35.5963,-92.2031,35.35778,-92.12186
201206,62656,374759,1,0.0,N,VENDOR,35.95,-93.08,35.57,-93.48
201206,62656,374760,1,0.0,N,POTTSVILLE,35.25,-93.05,35.15,-93.3
201206,62656,374761,1,3.0,SE,OIL TROUGH,35.5993,-91.4322,35.35958,-91.25932
201206,62656,374762,1,1.58,NW,MAYFLOWER,34.9632,-92.4527,34.57792,-92.27162
201206,62656,374763,1,0.0,N,SHIRLEY,35.65,-92.32,35.39,-92.192
201206,62656,375219,1,0.93,S,EDGEMONT,35.5867,-92.182,35.35202,-92.1092
201206,62656,375226,1,0.0,N,OLD LEXINGTON,35.72,-92.4,35.432,-92.24
201206,62656,375228,1,1.59,SSE,RUBEK,35.649,-92.4086,35.3894,-92.24516
201206,62656,376243,1,0.0,N,HEBER SPGS,35.5,-92.03,35.3,-92.18
201206,62656,376244,1,0.0,N,DRASCO,35.63,-91.95,35.378,-91.57
201206,62656,376245,1,3.0,W,POSSUM GRAPE,35.48,-91.4633,35.288,-91.27798
201206,62657,374764,1,3.0,N,LEOLA,34.2134,-92.58,34.12804,-92.348
201206,62657,374765,1,0.0,W,POYEN,34.32,-92.63,34.192,-92.378
201206,62657,374766,1,1.49,NNW,DIXIE,34.79,-92.24,34.474,-92.144
201206,62657,374767,1,0.69,NW,(ORK)NO LITTLE ROCK ARPT,34.8357,-92.2599,34.50142,-92.15594
201206,62657,374768,1,2.0,W,IVAN,33.9,-92.4649,33.54,-92.27894
201206,62657,374769,1,6.79,SW,WYE,34.8752,-92.7395,34.52512,-92.4437
201206,62657,374770,1,1.17,WNW,GRAPEVINE,34.1569,-92.3387,34.9414,-92.20322
201206,62657,374771,1,0.0,N,RISON,33.95,-92.18,33.57,-92.108
201206,62657,374834,1,3.04,NE,CULLER,34.684,-91.786,34.4104,-91.4716
201206,62657,374834,2,3.12,NE,CULLER,34.684,-91.784,34.4104,-91.4704
201206,62657,374838,1,3.38,WNW,MILLERVILLE,34.1869,-92.4554,34.11214,-92.27324
201206,62657,375124,1,1.31,SSW,HOUSTON,35.0122,-92.7079,35.732,-92.42474
201205,62658,374773,1,0.69,S,UNION STAR,37.92,-86.45,37.552,-86.27
201205,62658,374774,1,1.49,SSW,HAWESVILLE,37.88,-86.76,37.528,-86.456
201205,62658,374775,1,0.0,N,BATTLETOWN,38.07,-86.3,38.42,-86.18
201205,62658,374776,1,0.0,N,IRVINGTON,37.88,-86.28,37.528,-86.168
201205,62658,374777,1,0.43,E,ROSINE,37.4495,-86.7422,37.2697,-86.44532
201205,62658,374778,1,0.0,N,MT WASHINGTON,38.05,-85.55,38.3,-85.33
201206,62660,374779,1,1.31,ESE,UDALL,36.52,-92.25,36.312,-92.15
201206,62661,374781,1,15.66,NNW,SILVERTON,34.66,-101.45,34.396,-10.127
201206,62661,375503,1,10.97,WSW,TULIA ARPT,34.4885,-101.9577,34.2931,-10.157462
201206,62661,375503,2,12.34,WSW,TULIA,34.4595,-101.9691,34.2757,-10.158146
201206,62663,374782,1,0.57,W,NEEDMORE,34.03,-102.74,34.18,-10.2444
201206,62663,374782,2,0.19,NE,CIRCLE BACK,34.0322,-102.6679,34.1932,-10.240074
201206,62663,374803,1,3.5,N,FRIENDSHIP,34.03,-102.59,34.18,-10.2354
201206,62663,374804,1,4.18,N,HART CAMP,34.09,-102.14,34.54,-10.284
201206,62663,374829,1,4.0,E,NEEDMORE,34.03,-102.6601,34.18,-10.239606
201205,62665,374816,1,10.7,SW,ST FRANCIS,43.0028,-101.041,43.168,-10.1246
201205,62665,374818,1,7.22,SSE,ST FRANCIS,43.0299,-100.8786,43.1794,-10.052716
201205,62665,374819,1,7.22,SSE,ST FRANCIS,43.0299,-100.8786,43.1794,-10.052716
201205,62668,374827,1,10.0,NNE,WHITE RIVER,43.7037,-100.6735,43.42222,-10.04041
201205,62669,374831,1,0.0,N,(2WX)BUFFALO,45.6,-103.55,45.36,-10.333
201205,62670,374846,1,0.73,SSE,SHOREHAM,43.8909,-73.3125,43.53454,-73.1875
201205,62670,374846,2,0.94,SE,SHOREHAM,43.8906,-73.3063,43.53436,-73.18378
201205,62670,374846,3,0.77,E,SHOREHAM,43.902,-73.3048,43.5412,-73.18288
201205,62670,374846,4,0.45,ENE,SHOREHAM,43.9022,-73.3114,43.54132,-73.18684
201205,62670,374848,1,0.46,ESE,CORNWALL,43.9668,-73.212,43.58008,-73.1272
201205,62670,374848,2,1.86,WNW,CORNWALL,43.978,-73.2558,43.5868,-73.15348
201205,62670,374848,3,1.61,N,SHOREHAM CENTER,43.9031,-73.2663,43.54186,-73.15978
201205,62670,374848,4,1.54,NE,WHITING,43.8865,-73.1792,43.5319,-73.10752
201205,62670,374849,1,1.01,NNE,BELVIDERE CENTER,44.7642,-72.6754,44.45852,-72.40524
201205,62670,374849,2,0.41,NE,BELVIDERE CENTER,44.7547,-72.675,44.45282,-72.405
201205,62670,374849,3,1.31,SW,BELVIDERE CORNERS,44.7566,-72.6389,44.45396,-72.38334
201205,62670,374849,4,1.15,W,BELVIDERE CORNERS,44.7692,-72.6433,44.46152,-72.38598
201205,62670,374850,1,0.28,SE,RIPTON,43.9775,-73.0254,43.5865,-73.1524
201205,62670,374850,2,0.92,NNE,BREAD LOAF,43.9612,-72.9901,43.57672,-72.59406
201205,62670,374850,3,0.54,SE,BREAD LOAF,43.9445,-72.9924,43.5667,-72.59544
201205,62670,374850,4,1.35,SSW,RIPTON,43.9615,-73.0388,43.5769,-73.2328
201205,62670,374851,1,1.18,NW,RIPTON,43.9919,-73.047,43.59514,-73.282
201205,62670,374851,2,0.69,WNW,RIPTON,43.9855,-73.0416,43.5913,-73.2496
201205,62670,374851,3,1.34,W,RIPTON,43.9789,-73.0569,43.58734,-73.3414
201205,62670,374851,4,1.42,WNW,RIPTON,43.9846,-73.0579,43.59076,-73.3474
201205,62670,374853,1,1.66,S,WESTMORE,44.7462,-72.0451,44.44772,-72.2706
201205,62670,374853,2,3.7,SSE,WESTMORE,44.7194,-72.0253,44.43164,-72.1518
201205,62670,374853,3,3.45,ENE,KIMBALL,44.7177,-72.0343,44.43062,-72.2058
201205,62670,374853,4,1.82,S,WESTMORE,44.7438,-72.0542,44.44628,-72.3252
201205,62670,374854,1,2.67,SSW,LOWELL,44.7626,-72.4638,44.45756,-72.27828
201205,62670,374854,2,2.56,S,LOWELL,44.7631,-72.455,44.45786,-72.273
201205,62670,374854,3,0.66,ENE,LOWELL,44.8043,-72.438,44.48258,-72.2628
201205,62670,374854,4,1.54,NNW,LOWELL,44.8189,-72.4665,44.49134,-72.2799
201205,62670,374857,1,0.0,N,EDEN MILLS,44.72,-72.52,44.432,-72.312
201205,62670,374857,2,2.1,ENE,EDEN MILLS,44.736,-72.4837,44.4416,-72.29022
201205,62670,374857,3,2.14,ENE,EDEN MILLS,44.727,-72.4775,44.4362,-72.2865
201205,62670,374857,4,0.56,E,EDEN MILLS,44.7185,-72.5087,44.4311,-72.30522
201205,62670,374860,1,0.46,N,GLOVER,44.7066,-72.1809,44.42396,-72.10854
201205,62670,374860,2,1.13,E,GLOVER,44.7009,-72.157,44.42054,-72.942
201205,62670,374860,3,1.18,SE,GLOVER,44.6869,-72.1646,44.41214,-72.9876
201205,62670,374860,4,0.48,WSW,GLOVER,44.6971,-72.1889,44.41826,-72.11334
201205,62670,374869,1,0.86,NNE,BELVIDERE JCT,44.7422,-72.7464,44.44532,-72.44784
201205,62670,374869,2,1.84,NE,BELVIDERE JCT,44.7486,-72.723,44.44916,-72.4338
201205,62670,374869,3,0.81,WNW,BELVIDERE CENTER,44.7525,-72.6961,44.4515,-72.41766
201205,62670,374869,4,0.61,WSW,BELVIDERE CENTER,44.7474,-72.6919,44.44844,-72.41514
201205,62670,374869,5,0.46,NNE,BELVIDERE JCT,44.7355,-72.7449,44.4413,-72.44694
201205,62670,375582,1,1.21,SE,RIVERSIDE,43.76,-72.71,43.456,-72.426
201205,62670,375583,1,0.69,S,EAST BARNARD,43.74,-72.53,43.444,-72.318
201204,62955,376610,1,3.14,WNW,AMARILLO,35.22,-101.87,35.132,-10.1522
201204,62955,376611,1,6.02,WSW,AMARILLO,35.17,-101.92,35.102,-10.1552
201204,62955,376612,1,2.65,WNW,WILDORADO,35.22,-102.24,35.132,-10.2144
201204,62955,376613,1,4.97,WSW,AMARILLO,35.17,-101.9,35.102,-10.154
201204,62955,376614,1,0.0,N,VALLE DE ORO,35.45,-102.11,35.27,-10.266
201204,62955,376615,1,4.13,NNW,WILDORADO,35.25,-102.24,35.15,-10.2144
201204,62955,376616,1,9.67,NW,AMARILLO,35.3,-101.94,35.18,-10.1564
201204,62955,376617,1,0.69,S,ALANREED,35.21,-100.73,35.126,-10.0438
201204,62955,376618,1,3.66,WNW,AMARILLO,35.22,-101.88,35.132,-10.1528
201204,62955,376619,1,2.15,NNW,GROOM,35.23,-101.11,35.138,-10.166
201204,62955,376620,1,3.95,W,AMARILLO,35.2,-101.89,35.12,-10.1534
201204,62955,376621,1,0.89,NE,MC LEAN,35.24,-100.59,35.144,-10.0354
201204,62955,376622,1,0.69,N,ALLISON,35.61,-100.1,35.366,-10.06
201204,62955,376623,1,5.53,N,AMARILLO,35.28,-101.82,35.168,-10.1492
201204,62955,376624,1,0.0,N,WELLINGTON,34.85,-100.22,34.51,-10.0132
201204,62955,376625,1,0.0,N,WELLINGTON,34.85,-100.22,34.51,-10.0132
201204,62955,376626,1,4.0,S,PAMPA,35.4721,-100.97,35.28326,-10.0582
201204,62955,376627,1,4.0,S,PAMPA,35.4721,-100.97,35.28326,-10.0582
201204,62955,376628,1,2.15,NNW,GROOM,35.23,-101.11,35.138,-10.166
201204,62955,376629,1,4.01,E,CONWAY,35.21,-101.31,35.126,-10.1186
201205,62956,376589,1,2.63,SE,HOMEWOOD,38.49,-95.35,38.294,-95.21
201205,62957,376592,1,0.54,W,(OJC)JOHNSON CO EXEC,38.85,-94.74,38.51,-94.444
201205,62957,376594,1,1.28,ESE,STANLEY,38.84,-94.63,38.504,-94.378
201205,62957,376597,1,1.08,W,STANLEY,38.85,-94.67,38.51,-94.402
201205,62958,376633,1,1.44,WNW,GREENWOOD,38.8598,-94.3736,38.51588,-94.22416
201205,62958,376633,2,2.46,WNW,GREENWOOD,38.8579,-94.3945,38.51474,-94.2367
201205,62958,376633,3,2.05,N,BELVIDERE,38.8495,-94.3949,38.5097,-94.23694
201205,62958,376633,4,1.11,W,GREENWOOD,38.8495,-94.3707,38.5097,-94.22242
201205,62958,376637,1,1.76,ENE,PLEASANT HILL,38.79,-94.24,38.474,-94.144
201205,62958,376637,2,1.99,ENE,PLEASANT HILL,38.791,-94.2358,38.4746,-94.14148
201205,62958,376637,3,1.96,ENE,PLEASANT HILL,38.79,-94.2359,38.474,-94.14154
201205,62958,376637,4,1.83,ENE,PLEASANT HILL,38.7898,-94.2384,38.47388,-94.14304
201205,62958,376640,1,1.28,ESE,GEORGETOWN,38.76,-93.23,38.456,-93.138
201205,62958,376641,1,0.0,N,LAKE WINNEBAGO,38.82,-94.27,38.492,-94.162
201205,62958,376642,1,0.54,E,GREENWOOD,38.85,-94.34,38.51,-94.204
201205,62958,376648,1,0.69,N,GRANDVIEW RCHRDS-GEB,38.86,-94.57,38.516,-94.342
201204,62959,376643,1,3.23,SSE,GRUVER,36.23,-101.37,36.138,-10.1222
201204,62959,376644,1,5.58,E,SPEARMAN,36.2,-101.1,36.12,-10.16
201204,62959,376645,1,5.09,W,DUMAS MUNI ARPT,35.86,-102.11,35.516,-10.266
201204,62959,376646,1,0.69,N,DUMAS,35.86,-101.97,35.516,-10.1582
201204,62959,376647,1,0.69,N,DUMAS,35.86,-101.97,35.516,-10.1582
201204,62959,376649,1,1.32,WSW,BORGER,35.66,-101.4,35.396,-10.124
201204,62959,376650,1,2.36,SSW,BORGER,35.64,-101.4,35.384,-10.124
201204,62959,376651,1,1.32,WSW,BORGER,35.66,-101.4,35.396,-10.124
201204,62959,376652,1,1.32,WSW,BORGER,35.66,-101.4,35.396,-10.124
201204,62959,376653,1,1.49,NNE,PAMPA,35.55,-100.96,35.33,-10.0576
201204,62959,376654,1,1.38,S,BORGER,35.65,-101.38,35.39,-10.1228
201204,62959,376655,1,1.12,W,BORGER,35.67,-101.4,35.402,-10.124
201204,62959,376656,1,2.07,N,PAMPA,35.56,-100.97,35.336,-10.0582
201204,62959,376657,1,0.69,S,HUTCHINSON CO ARPT,35.69,-101.4,35.414,-10.124
201204,62959,376658,1,3.5,N,MIAMI,35.75,-100.64,35.45,-10.0384
201204,62959,376659,1,11.81,W,CODMAN,35.63,-100.96,35.378,-10.0576
201204,62959,376660,1,6.22,N,HARTLEY,35.97,-102.4,35.582,-10.224
201204,62959,376661,1,2.0,W,WAYSIDE,34.78,-101.5852,34.468,-10.135112
201204,62959,376662,1,2.0,W,WAYSIDE,34.78,-101.5852,34.468,-10.135112
201204,62959,376671,1,0.0,E,SPEARMAN,36.2,-101.2,36.12,-10.112
201204,62959,376673,1,0.0,W,HIGGINS,36.12,-100.02,36.72,-10.012
201204,62959,376674,1,1.0,NNE,PAMPA,35.5434,-100.9632,35.32604,-10.057792
201205,62960,376663,1,2.51,ENE,ISADORA,40.54,-94.48,40.324,-94.288
201205,62960,376664,1,2.51,ENE,ISADORA,40.54,-94.48,40.324,-94.288
201205,62960,376665,1,3.49,N,ALLENDALE,40.53,-94.29,40.318,-94.174
201205,62960,376666,1,0.87,NE,GRANT CITY,40.49,-94.41,40.294,-94.246
201205,62960,376667,1,3.35,NE,OXFORD,40.45,-94.5,40.27,-94.3
201205,62960,376668,1,0.0,N,UNIONVILLE,40.48,-93.0,40.288,-93.0
201205,62960,376669,1,2.07,S,UNIONVILLE,40.45,-93.0,40.27,-93.0
201205,62960,376670,1,0.0,N,UNIONVILLE,40.48,-93.0,40.288,-93.0
201205,62961,376676,1,2.34,NNE,SMITHTON,38.71,-93.08,38.426,-93.48
201205,62961,376677,1,0.54,E,SMITHTON,38.68,-93.09,38.408,-93.54
201204,62962,376678,1,0.0,N,EVA,36.8,-101.9,36.48,-10.154
201205,62963,376681,1,1.38,SW,SLADE,37.7871,-83.7193,37.47226,-83.43158
201205,62963,376681,2,0.79,NE,NATURAL BRIDGE,37.7892,-83.6715,37.47352,-83.4029
201205,62963,376681,3,1.27,SE,NATURAL BRIDGE,37.7696,-83.6607,37.46176,-83.39642
201205,62963,376681,4,1.42,SW,NATURAL BRIDGE,37.764,-83.6963,37.4584,-83.41778
201205,62963,376682,1,1.63,W,LOCUST,38.3,-83.76,38.18,-83.456
201205,62963,376682,2,0.23,WNW,LOCUST,38.3012,-83.7339,38.18072,-83.44034
201205,62963,376682,3,0.35,SSW,LOCUST,38.2955,-83.733,38.1773,-83.4398
201205,62963,376682,4,1.53,NE,SHERBURNE,38.2935,-83.7576,38.1761,-83.45456
201205,62963,376683,1,0.55,W,NATURAL BRIDGE,37.78,-83.69,37.468,-83.414
201205,62963,376684,1,0.55,W,NATURAL BRIDGE,37.78,-83.69,37.468,-83.414
201205,62963,376685,1,0.55,E,NEVISDALE,36.68,-84.04,36.408,-84.24
201205,62963,376686,1,2.0,E,CAMARGO,38.0,-83.8433,38.0,-83.50598
201204,62964,376687,1,3.1,WSW,LAUREL SPGS,36.4,-81.32,36.24,-81.192
201204,62966,376688,1,1.3,ESE,AUSTINVILLE,36.84,-80.88,36.504,-80.528
201206,62967,377011,1,0.6,SE,COLUMBIA,31.2831,-85.1037,31.16986,-85.6222
201206,62967,377012,1,0.0,N,WEBB,31.26,-85.28,31.156,-85.168
201206,62967,377013,1,1.96,NW,PEARCE,31.2722,-85.2405,31.16332,-85.1443
201206,62967,377014,1,1.49,ENE,SMYRNA,31.2405,-85.2979,31.1443,-85.17874
201206,62967,377015,1,0.0,N,PINCKARD,31.31,-85.54,31.186,-85.324
201206,62967,377016,1,0.0,N,DOTHAN,31.22,-85.39,31.132,-85.234
201206,62967,377017,1,0.0,N,OZARK,31.44,-85.64,31.264,-85.384
201206,62967,377018,1,0.91,NW,CAMP ALAFLO BSA,31.42,-85.86,31.252,-85.516
201206,62967,377019,1,1.5,NNE,CLINTONVILLE,31.42,-85.88,31.252,-85.528
201206,62967,377020,1,0.0,N,ENTERPRISE,31.32,-85.84,31.192,-85.504
201206,62967,377021,1,0.91,NW,CAMP ALAFLO BSA,31.42,-85.86,31.252,-85.516
201206,62968,376689,1,0.0,N,FUNSTON,31.19,-83.87,31.114,-83.522
201206,62968,376690,1,3.6,SE,PECAN CITY,31.48,-84.02,31.288,-84.12
201206,62968,376691,1,0.0,N,FUNSTON,31.19,-83.87,31.114,-83.522
201206,62968,376692,1,0.91,NE,RICKS PLACE,31.77,-85.08,31.462,-85.48
201206,62969,376693,1,1.17,E,MACON COMMUNITY PARK,30.4869,-84.2507,30.29214,-84.15042
201206,62969,376697,1,1.79,E,MACON COMMUNITY PARK,30.49,-84.24,30.294,-84.144
201206,62969,377004,1,0.0,N,HAVANA,30.62,-84.41,30.372,-84.246
201206,62969,377005,1,0.0,N,GILBERTS MILL,30.63,-85.49,30.378,-85.294
201206,62969,377006,1,0.0,N,CHIPLEY,30.77,-85.53,30.462,-85.318
201206,62969,377007,1,1.0,E,WAUSAU,30.63,-85.5632,30.378,-85.33792
201206,62969,377008,1,0.0,N,CARYVILLE,30.77,-85.81,30.462,-85.486
201206,62969,377009,1,0.47,NW,DARLINGTON,30.9445,-86.056,30.5667,-86.336
201206,62969,377010,1,1.32,WSW,EUCHEEANNA,30.6298,-86.0589,30.37788,-86.3534
201206,62970,376709,1,2.14,NNE,DENALI N.P.,63.7493,-148.8974,63.44958,-14.853844
201206,62970,376709,2,3.25,N,DENALI N.P.,63.7667,-148.9089,63.46002,-14.854534
201205,62972,376710,1,3.36,E,ELAMSVILLE,36.7756,-80.1397,36.46536,-80.8382
201205,62972,376711,1,3.91,S,DODSON,36.7735,-80.1157,36.4641,-80.6942
201205,62972,376712,1,1.65,SW,DODSON,36.8118,-80.1393,36.48708,-80.8358
201205,62972,376713,1,2.75,E,THAXTON,37.35,-79.58,37.21,-79.348
201205,62972,376714,1,0.0,N,THAXTON,37.35,-79.63,37.21,-79.378
201205,62972,376715,1,0.45,SSW,BEDFORD CITY,37.3237,-79.5323,37.19422,-79.31938
201205,62972,376723,1,2.75,E,THAXTON,37.35,-79.58,37.21,-79.348
201205,62972,376728,1,3.07,S,BEDFORD CITY,37.2855,-79.5298,37.1713,-79.31788
201205,62972,376730,1,1.66,SW,DODSON,36.8115,-80.1392,36.4869,-80.8352
201204,62973,376739,1,5.94,W,MIDDLE TAMPA BAY,27.7651,-82.627,27.45906,-82.3762
201205,62974,376731,1,0.19,N,BELLOWS FALLS,43.1328,-72.4493,43.7968,-72.26958
201205,62974,376732,1,0.33,NE,BELLOWS FALLS,43.1328,-72.4446,43.7968,-72.26676
201205,62974,376733,1,0.51,NE,BELLOWS FALLS,43.1349,-72.4424,43.8094,-72.26544
201204,63459,379827,1,4.0,S,TROUTDALE,36.6421,-81.43,36.38526,-81.258
201206,63460,379838,1,0.9,N,POST MILLS ARPT,43.8931,-72.2494,43.53586,-72.14964
201205,63461,379889,1,1.44,NNE,ZAPATA ARPT,26.8982,-99.2684,26.53892,-99.16104
201205,63461,379889,2,1.41,ENE,ZAPATA ARPT,26.89,-99.26,26.534,-99.156
201205,63461,379896,1,1.46,NNE,ZAPATA ARPT,26.8983,-99.2684,26.53898,-99.16104
201205,63461,379899,1,0.31,WSW,RANDADO,27.078,-98.8846,27.468,-98.53076
201205,63461,379905,1,0.31,WSW,RANDADO,27.078,-98.8846,27.468,-98.53076
201205,63461,379905,2,0.23,SW,RANDADO,27.0779,-98.8829,27.4674,-98.52974
201205,63461,387008,1,2.29,NE,FALCON RES NORTH,26.8474,-99.2292,26.50844,-99.13752
201205,63461,387008,2,4.05,E,FALCON RES NORTH,26.8247,-99.1846,26.49482,-99.11076
201206,63038,383745,1,0.37,WSW,SOUTH ST PAUL,44.8786,-93.0372,44.52716,-93.2232
201206,63038,383745,2,0.69,S,SOUTH ST PAUL,44.87,-93.03,44.522,-93.18
201206,63038,383748,1,3.21,S,NORTH ST PAUL,44.9537,-93.0063,44.57222,-93.378
201206,63038,383749,1,1.66,NNW,LAKEVILLE,44.6919,-93.2637,44.41514,-93.15822
201206,63038,392234,1,4.77,SW,COTTAGE GROVE,44.7909,-92.9601,44.47454,-92.57606
201206,63038,392234,2,0.71,N,AFTON,44.9101,-92.7775,44.54606,-92.4665
201206,63038,392235,1,2.31,W,GIBBON,44.5303,-94.5669,44.31818,-94.34014
201206,63038,392235,2,2.33,ENE,GIBBON,44.5401,-94.4749,44.32406,-94.28494
201206,63038,394760,1,2.77,NNW,WEST ST PAUL,44.9388,-93.0643,44.56328,-93.3858
201206,63039,383716,1,1.47,E,PRESCOTT,44.75,-92.79,44.45,-92.474
201206,63039,383717,1,1.69,SE,ELK MOUND,44.85,-91.66,44.51,-91.396
201206,63039,383718,1,0.49,W,EAU CLAIRE,44.82,-91.49,44.492,-91.294
201204,63040,377438,1,3.16,NNE,BOCA RATON,26.3737,-80.0653,26.22422,-80.3918
201204,63040,377438,2,10.94,ENE,BOCA RATON,26.3973,-79.92,26.23838,-79.552
201204,63041,377439,1,11.67,NNE,ELLIOT KEY,25.591,-80.097,25.3546,-80.582
201206,63042,377570,1,3.0,SW,OLIVER SPGS,36.0193,-84.368,36.1158,-84.2208
201206,63042,377570,2,6.0,SW,OLIVER SPGS,35.9886,-84.4059,35.59316,-84.24354
201206,63042,377570,3,5.0,SSW,OLIVER SPGS,35.9831,-84.3642,35.58986,-84.21852
201206,63042,377570,4,3.0,S,OLIVER SPGS,36.0066,-84.33,36.396,-84.198
201206,63042,377571,1,5.0,W,OLIVER SPGS,36.05,-84.4195,36.3,-84.2517
201206,63042,377571,2,5.0,WSW,OLIVER SPGS,36.0223,-84.4127,36.1338,-84.24762
201206,63042,377571,3,6.0,WSW,OLIVER SPGS,36.0168,-84.4292,36.1008,-84.25752
201206,63042,377571,4,5.5,W,OLIVER SPGS,36.05,-84.4285,36.3,-84.2571
201206,63042,379888,1,2.0,NW,VONORE,35.6005,-84.2752,35.3603,-84.16512
201206,63042,379904,1,3.0,SE,MADISONVILLE,35.4893,-84.3323,35.29358,-84.19938
201206,63042,379915,1,0.0,ENE,TOWNSEND,35.67,-83.77,35.402,-83.462
201206,63042,379943,1,0.0,N,HATCHERTOWN,35.73,-83.63,35.438,-83.378
201206,63042,379944,1,0.0,NE,OAKDALE,35.98,-84.57,35.588,-84.342
201206,63042,379946,1,1.32,ENE,GRANDVIEW,35.76,-84.81,35.456,-84.486
201206,63042,380175,1,2.0,NE,PIKEVILLE,35.6205,-85.1748,35.3723,-85.10488
201206,63042,380176,1,0.0,NE,OAKDALE,35.98,-84.57,35.588,-84.342
201206,63042,380177,1,0.0,NE,OAKDALE,35.98,-84.57,35.588,-84.342
201206,63042,393548,1,1.5,NE,TOWNSEND,35.6854,-83.7511,35.41124,-83.45066
201205,63043,377574,1,0.42,NW,MARION,43.9539,-92.3565,43.57234,-92.2139
201205,63045,377576,1,2.05,SSW,EDEN,44.0753,-92.9029,44.4518,-92.54174
201205,63046,377579,1,2.12,W,HOMER,44.0149,-91.6121,44.894,-91.36726
201204,63048,377584,1,0.97,NNW,HALLANDALE,25.9935,-80.154,25.5961,-80.924
201204,63050,377588,1,1.83,WSW,RABUN GAP,34.94,-83.41,34.564,-83.246
201204,63050,377589,1,0.69,N,TOURNAPULL,34.63,-83.27,34.378,-83.162
201204,63050,377590,1,2.93,ESE,PARHAMS,34.41,-83.18,34.246,-83.108
201204,63050,377591,1,2.15,NNW,CROMERS,34.31,-83.24,34.186,-83.144
201204,63050,377594,1,2.37,NNW,CROMERS,34.31,-83.25,34.186,-83.15
201204,63051,377595,1,1.84,ENE,BELTON,34.53,-82.47,34.318,-82.282
201204,63051,377597,1,3.68,WNW,MC KEOWN,34.64,-81.24,34.384,-81.144
201204,63052,377600,1,0.56,W,HIGDONVILLE,35.18,-83.31,35.108,-83.186
201204,63052,377601,1,0.89,SE,MILLS RIVER,35.39,-82.57,35.234,-82.342
201204,63052,377602,1,1.38,N,WILSON,35.62,-82.45,35.372,-82.27
201204,63052,377603,1,1.12,E,ASHEVILLE,35.6,-82.55,35.36,-82.33
201204,63052,377974,1,3.42,SSW,VALLEY HILL,35.258,-82.512,35.1548,-82.3072
201204,63053,377604,1,2.36,WNW,RIVER FALLS,35.13,-82.57,35.78,-82.342
201204,63053,377606,1,1.49,SSE,WOODRUFF,34.73,-82.02,34.438,-82.12
201204,63053,377607,1,6.63,WNW,APPALACHIE,35.02,-82.32,35.12,-82.192
201204,63053,377607,2,2.15,SSW,CAMPOBELLO ARPT,35.05,-82.23,35.3,-82.138
201204,63053,377608,1,2.36,SSW,JORDON,35.0,-82.27,35.0,-82.162
201204,63053,377609,1,3.0,W,INMAN,35.03,-82.133,35.18,-82.798
201204,63053,377610,1,1.25,WSW,BOILING SPGS,35.0431,-82.0004,35.2586,-82.24
201204,63053,377610,2,0.0,WSW,BOILING SPGS,35.05,-81.98,35.3,-81.588
201204,63053,377943,1,2.26,W,BOILING SPGS,35.05,-82.02,35.3,-82.12
201204,63053,377944,1,0.0,N,BOILING SPGS,35.05,-81.98,35.3,-81.588
201204,63053,377944,2,1.13,W,FORSTER,35.03,-81.89,35.18,-81.534
201204,63053,377948,1,1.49,SSE,BONHAM,34.76,-81.64,34.456,-81.384
201204,63053,377948,2,0.45,SW,UNION,34.715,-81.625,34.429,-81.375
201204,63053,377950,1,0.89,SE,HAYNE,34.99,-81.97,34.594,-81.582
201204,63053,377953,1,1.0,NW,GREER,34.9402,-82.2425,34.56412,-82.1455
201204,63053,377954,1,0.89,SE,ARLINGTON,34.96,-82.19,34.576,-82.114
201204,63053,377956,1,1.49,SSE,HOLLY SPGS,34.98,-82.17,34.588,-82.102
201204,63053,377958,1,0.0,SW,DUNCAN,34.93,-82.15,34.558,-82.9
201204,63053,377962,1,0.89,NW,LOCKHART,34.79,-81.46,34.474,-81.276
201204,63053,377971,1,3.24,NNW,THICKETTY,35.06,-81.75,35.36,-81.45
201204,63053,377972,1,0.0,N,UNION,34.72,-81.62,34.432,-81.372
201204,63053,377973,1,0.0,N,CAMP CROFT,34.92,-81.87,34.552,-81.522
201206,63054,377611,1,8.31,N,KIMBALL,41.35,-103.66,41.21,-10.3396
201206,63054,377612,1,1.38,S,LORENZO,41.03,-103.05,41.18,-10.33
201206,63054,377613,1,1.0,N,SIDNEY,41.1645,-102.98,41.987,-10.2588
201206,63054,377614,1,1.0,W,SIDNEY,41.15,-102.9992,41.9,-10.259952
201206,63054,377615,1,8.0,NE,SIDNEY,41.2319,-102.8712,41.13914,-10.252272
201206,63054,377616,1,0.0,N,SUNOL,41.17,-102.77,41.102,-10.2462
201206,63055,377617,1,0.92,SE,PETERS LNDG,35.4708,-87.9881,35.28248,-87.59286
201206,63055,377618,1,1.97,WSW,FORTY EIGHT CREEK BR,35.3231,-87.7039,35.19386,-87.42234
201206,63055,377619,1,1.21,WSW,BLONDY,35.5655,-87.5507,35.3393,-87.33042
201206,63055,377620,1,0.0,N,LINDEN,35.62,-87.85,35.372,-87.51
201206,63055,377621,1,0.58,SSW,CHESTNUT GROVE,35.6227,-87.8251,35.37362,-87.49506
201206,63055,377622,1,1.05,SSE,BUSBY,35.1069,-87.4108,35.6414,-87.24648
201206,63055,377623,1,1.99,S,LEOMA,35.1417,-87.3437,35.8502,-87.20622
201206,63056,377624,1,7.0,W,WHEATLAND,42.05,-105.1064,42.3,-10.56384
201206,63056,377624,2,1.72,SE,SLATER,41.85,-104.81,41.51,-10.4486
201206,63056,377625,1,6.41,SSE,LITTLE BEAR,41.44,-104.87,41.264,-10.4522
201206,63056,377625,2,6.46,SSE,LITTLE BEAR,41.4396,-104.8683,41.26376,-10.452098
201206,63056,377626,1,9.59,ESE,LITTLE BEAR,41.46,-104.74,41.276,-10.4444
201206,63056,377626,2,9.84,ESE,LITTLE BEAR,41.4593,-104.7351,41.27558,-10.444106
201206,63057,377632,1,2.81,N,COOKEVILLE ARPT,36.2406,-85.4761,36.14436,-85.28566
201206,63057,377632,2,1.67,N,POPLAR GROVE,36.1741,-85.422,36.10446,-85.2532
201206,63057,377637,1,6.37,NW,JEREMIAH,36.2953,-85.4807,36.17718,-85.28842
201206,63057,377638,1,0.43,SE,GISMONDA,35.9664,-88.1138,35.57984,-88.6828
201204,63058,377627,1,0.0,N,LA BELLE,40.12,-91.92,40.72,-91.552
201204,63058,377629,1,1.74,NE,CENTRALIA,39.2378,-92.1071,39.14268,-92.6426
201204,63058,377629,2,3.38,ENE,RUCKER,39.2442,-92.3597,39.14652,-92.21582
201204,63058,377629,3,0.7,SE,HARRISBURG,39.1416,-92.4627,39.8496,-92.27762
201204,63058,377629,4,3.0,SE,ROCHEPORT,38.9551,-92.5241,38.57306,-92.31446
201204,63058,377629,5,0.63,N,CLAYSVILLE,38.6791,-92.2714,38.40746,-92.16284
